LOCATION_GID,LOCATION_XID,LOCATION_NAME,CITY,PROVINCE,PROVINCE_CODE,POSTAL_CODE,COUNTRY_CODE3_GID,ZONE1,ZONE2,ZONE3,TIME_ZONE_GID,LAT,LON
LFL/TMS/PHL.GSK1200044162,GSK1200044162,SNACK EXCHANGE MAINSTREMBUSINCBGUIO,BAGUIO,BENGUET,PH-BEN,2600,PHL,LFREG01,PH-BEN,BAGUIO,Asia/Manila,16.40904,120.59947
LFL/TMS/PHL.GSK1200043999,GSK1200043999,ROBINSONS SMKT BALANGA BATAAN,BALANGA,BATAAN,PH-BAN,2100,PHL,LFREG03,PH-BAN,BALANGA,Asia/Manila,14.67893,120.54138
LFL/TMS/PHL.GSK1200044127,GSK1200044127,PUREGOLD PRICE CLUB BALANGA,BALANGA,BATAAN,PH-BAN,2100,PHL,LFREG03,PH-BAN,BALANGA,Asia/Manila,14.67857,120.54011
LFL/TMS/PHL.GSK1200060692,GSK1200060692,FIRST LANE NE SUKLAYIN BALER,BALER,AURORA,PH-AUR,3200,PHL,LFREG03,PH-AUR,BALER,Asia/Manila,15.75639,121.54728
LFL/TMS/PHL.GSK1200061767,GSK1200061767,SANFORD MKTG CORP BAMBANG,BAMBANG,NUEVA VIZCAYA,PH-NUV,3702,PHL,LFREG02,PH-NUV,BAMBANG,Asia/Manila,16.40322,121.11177
LFL/TMS/PHL.GSK1200044283,GSK1200044283,Puregold Quirino Highway,CALOOCAN NORTH,NCR,PH-00,1420,PHL,LFNCR01,PH-00-6,CALOOCAN NORTH,Asia/Manila,14.72452,121.04171
LFL/TMS/PHL.GSK1200061797,GSK1200061797,SANFORD MKTG CORP BAMBANG,BAMBANG,NUEVA VIZCAYA,PH-NUV,3702,PHL,LFREG02,PH-NUV,BAMBANG,Asia/Manila,16.38834,121.1072
LFL/TMS/PHL.GSK1200060017,GSK1200060017,Puregold Deparo Caloocan,CALOOCAN NORTH,NCR,PH-00,1420,PHL,LFNCR01,PH-00-6,CALOOCAN NORTH,Asia/Manila,14.74115,121.02358
LFL/TMS/PHL.GSK1200059437,GSK1200059437,Puregold Bagong Silang Caloocan,CALOOCAN NORTH,NCR,PH-00,1420,PHL,LFNCR01,PH-00-6,CALOOCAN NORTH,Asia/Manila,14.78073,121.03334
LFL/TMS/PHL.GSK1200059821,GSK1200059821,Supervalue SM CENTER SANGANDAAN,CALOOCAN SOUTH,NCR,PH-00,1400,PHL,LFNCR01,PH-00-5,CALOOCAN SOUTH,Asia/Manila,14.65824,120.97174
LFL/TMS/PHL.GSK1200044257,GSK1200044257,Sanford Marketing Corp Candon,CANDON,ILOCOS SUR,PH-ILS,2710,PHL,LFREG01,PH-ILS,CANDON,Asia/Manila,17.19333,120.44793
LFL/TMS/PHL.GSK1200043884,GSK1200043884,SOUTH STAR DRUG INC CAM SUR,CAMALIGAN,CAMARINES SUR,PH-CAS,4401,PHL,LFREG05,PH-CAS,CAMALIGAN,Asia/Manila,13.63113,123.49698
LFL/TMS/PHL.GSK1200061676,GSK1200061676,Puregold Maypajo Caloocan,CALOOCAN SOUTH,NCR,PH-00,1400,PHL,LFNCR01,PH-00-5,CALOOCAN SOUTH,Asia/Manila,14.63769,120.97481
LFL/TMS/PHL.GSK1100290470,GSK1100290470,KING JAN ENTERPRISES,CAUAYAN CITY,ISABELA,PH-ISA,3305,PHL,LFREG02,PH-ISA,CAUAYAN CITY,Asia/Manila,16.93725,121.76679
LFL/TMS/PHL.GSK1200044259,GSK1200044259,SUPERVALUE INC CAUAYAN CITY,CAUAYAN CITY,ISABELA,PH-ISA,3305,PHL,LFREG02,PH-ISA,CAUAYAN CITY,Asia/Manila,16.93706,121.76761
LFL/TMS/PHL.GSK1100290472,GSK1100290472,Euro Med Laboratories Phils Inc,SILANG,CAVITE,PH-CAV,4118,PHL,LFREG4A,PH-CAV,SILANG,Asia/Manila,14.18394,120.96396
LFL/TMS/PHL.GSK1200043662,GSK1200043662,SUPERVALUE INC BACOOR,BACOOR CITY,CAVITE,PH-CAV,4102,PHL,LFREG4A,PH-CAV,BACOOR CITY,Asia/Manila,14.44525,120.9505
LFL/TMS/PHL.GSK1100290530,GSK1100290530,ALFAMART TRADING PHILIPPINES INC,IMUS CITY,CAVITE,PH-CAV,4103,PHL,LFREG4A,PH-CAV,IMUS CITY,Asia/Manila,14.40742,120.90332
LFL/TMS/PHL.GSK1200043607,GSK1200043607,SUPER SHOPPING MARKET MOLINO,BACOOR CITY,CAVITE,PH-CAV,4102,PHL,LFREG4A,PH-CAV,BACOOR CITY,Asia/Manila,14.384,120.97768
LFL/TMS/PHL.GSK1200044281,GSK1200044281,PUREGOLD MARCOS ALVAREZ,BACOOR CITY,CAVITE,PH-CAV,4102,PHL,LFREG4A,PH-CAV,BACOOR CITY,Asia/Manila,14.413,120.99064
LFL/TMS/PHL.GSK1200044248,GSK1200044248,Puregold Price Club Rosario,ROSARIO,CAVITE,PH-CAV,4106,PHL,LFREG4A,LFREG07,ROSARIO,Asia/Manila,14.40566,120.85955
LFL/TMS/PHL.GSK1200044282,GSK1200044282,Puregold Molino Road,BACOOR CITY,CAVITE,PH-CAV,4102,PHL,LFREG4A,PH-CAV,BACOOR CITY,Asia/Manila,14.41097,120.97557
LFL/TMS/PHL.GSK1200044009,GSK1200044009,Waltermart Supermarket Inc Calamba,CALAMBA CITY,LAGUNA,PH-LAG,4027,PHL,LFREG4A,PH-LAG,CALAMBA CITY,Asia/Manila,14.20278,121.15328
LFL/TMS/PHL.GSK1200044014,GSK1200044014,Waltermart Supermarket Inc Makiling,CALAMBA CITY,LAGUNA,PH-LAG,4027,PHL,LFREG4A,PH-LAG,CALAMBA CITY,Asia/Manila,14.16038,121.13856
LFL/TMS/PHL.GSK1200044035,GSK1200044035,SANFORD MKTG CORP SMC LAGUNA PARIAN,CALAMBA CITY,LAGUNA,PH-LAG,4027,PHL,LFREG4A,PH-LAG,CALAMBA CITY,Asia/Manila,14.21365,121.15066
LFL/TMS/PHL.GSK1200044114,GSK1200044114,PUREGOLD PRICE CLUB CALAMBA,CALAMBA CITY,LAGUNA,PH-LAG,4027,PHL,LFREG4A,PH-LAG,CALAMBA CITY,Asia/Manila,14.1948,121.16524
LFL/TMS/PHL.GSK1200046884,GSK1200046884,SANFORD BANLIC LAGUNA,CALAMBA CITY,LAGUNA,PH-LAG,4027,PHL,LFREG4A,PH-LAG,CALAMBA CITY,Asia/Manila,14.2276,121.13795
LFL/TMS/PHL.GSK1200061752,GSK1200061752,ROSE PHARMACY INC CALAMBA,CALAMBA CITY,LAGUNA,PH-LAG,4027,PHL,LFREG4A,PH-LAG,CALAMBA CITY,Asia/Manila,14.20696,121.15809
LFL/TMS/PHL.GSK1200044170,GSK1200044170,SNACK EXCHANGE MARKETSTRATEGICCLMBA,CALAMBA CITY,LAGUNA,PH-LAG,4027,PHL,LFREG4A,PH-LAG,CALAMBA CITY,Asia/Manila,14.20364,121.15495
LFL/TMS/PHL.GSK1200043698,GSK1200043698,PUREGOLD PRICE CLUB CANLUBANG,CALAMBA CITY,LAGUNA,PH-LAG,4027,PHL,LFREG4A,PH-LAG,CALAMBA CITY,Asia/Manila,14.22935,121.13835
LFL/TMS/PHL.GSK1200044021,GSK1200044021,ROBINSONS SMKT CALASIAO PANGASINA,CALASIAO,PANGASINAN,PH-PAN,2418,PHL,LFREG01,PH-PAN,CALASIAO,Asia/Manila,16.02212,120.35885
LFL/TMS/PHL.GSK1200044094,GSK1200044094,Puregold Price Club OrientalMindoro,CALAPAN,ORIENTAL MINDORO,PH-MDR,5200,PHL,LFREG4B,PH-MDR,CALAPAN,Asia/Manila,12.58769,121.51824
LFL/TMS/PHL.GSK1200043600,GSK1200043600,King Alton Ent Inc Mindoro,CALAPAN,ORIENTAL MINDORO,PH-MDR,5200,PHL,LFREG4B,PH-MDR,CALAPAN,Asia/Manila,13.40271,121.172
LFL/TMS/PHL.GSK1200043664,GSK1200043664,Supervalue Inc Dasmarinas,DASMARINAS,CAVITE,PH-CAV,4114,PHL,LFREG4A,PH-CAV,DASMARINAS,Asia/Manila,14.30115,120.95739
LFL/TMS/PHL.GSK1200045406,GSK1200045406,SANFORD MKTG CORP SALAWAG,DASMARINAS,CAVITE,PH-CAV,4114,PHL,LFREG4A,PH-CAV,DASMARINAS,Asia/Manila,14.34068,120.98431
LFL/TMS/PHL.GSK1200046880,GSK1200046880,Waltermart Tagaytay,TAGAYTAY CITY,CAVITE,PH-CAV,4120,PHL,LFREG4A,PH-CAV,TAGAYTAY CITY,Asia/Manila,14.11324,120.95921
LFL/TMS/PHL.GSK1200049566,GSK1200049566,SANFORD ANABU,IMUS CITY,CAVITE,PH-CAV,4103,PHL,LFREG4A,PH-CAV,IMUS CITY,Asia/Manila,14.39674,120.93952
LFL/TMS/PHL.GSK1200060795,GSK1200060795,Sanford Mktg. Corp. Portal GMA,GENERAL MARIANO ALVAREZ,CAVITE,PH-CAV,4117,PHL,LFREG4A,PH-CAV,GENERAL MARIANO ALVAREZ,Asia/Manila,14.29464,121.00652
LFL/TMS/PHL.GSK1200061255,GSK1200061255,PUREGOLD MANGGAHAN,GENERAL TRIAS CITY,CAVITE,PH-CAV,4107,PHL,LFREG4A,PH-CAV,GENERAL TRIAS CITY,Asia/Manila,14.29169,120.91044
LFL/TMS/PHL.GSK1200061677,GSK1200061677,PUREGOLD TERMINAL MALL IMU,IMUS CITY,CAVITE,PH-CAV,4103,PHL,LFREG4A,PH-CAV,IMUS CITY,Asia/Manila,14.42203,120.93893
LFL/TMS/PHL.GSK1200044174,GSK1200044174,SNACK EXCHANGE MAINSTREAMBUS BACOOR,BACOOR CITY,CAVITE,PH-CAV,4102,PHL,LFREG4A,PH-CAV,BACOOR CITY,Asia/Manila,14.44469,120.9507
LFL/TMS/PHL.GSK1200044178,GSK1200044178,SNACK EXCHANGE MANILASOUTHRNROSARIO,ROSARIO,CAVITE,PH-CAV,4106,PHL,LFREG4A,LFREG07,ROSARIO,Asia/Manila,14.40913,120.85719
LFL/TMS/PHL.GSK1200044168,GSK1200044168,SNACK EXCHANGE MERCNTILESTORE DASMA,DASMARINAS,CAVITE,PH-CAV,4114,PHL,LFREG4A,PH-CAV,DASMARINAS,Asia/Manila,14.30141,120.95675
LFL/TMS/PHL.GSK1200044857,GSK1200044857,PUREGOLD PRICE CLUB JR T MARTIRES,TRECE MARTIRES CITY,CAVITE,PH-CAV,4109,PHL,LFREG4A,PH-CAV,TRECE MARTIRES CITY,Asia/Manila,14.28229,120.88965
LFL/TMS/PHL.GSK1200044893,GSK1200044893,KAREILA MANAGEMENT CORP. IMUS,IMUS CITY,CAVITE,PH-CAV,4103,PHL,LFREG4A,PH-CAV,IMUS CITY,Asia/Manila,14.39061,120.93876
LFL/TMS/PHL.GSK1200043710,GSK1200043710,PUREGOLD PRICE CLUB IMUS,IMUS CITY,CAVITE,PH-CAV,4103,PHL,LFREG4A,PH-CAV,IMUS CITY,Asia/Manila,14.38815,120.9397
LFL/TMS/PHL.GSK1200043726,GSK1200043726,Puregold Price Club Inc Gma Cavite,GENERAL MARIANO ALVAREZ,CAVITE,PH-CAV,4117,PHL,LFREG4A,PH-CAV,GENERAL MARIANO ALVAREZ,Asia/Manila,14.28301,121.00061
LFL/TMS/PHL.GSK1200043681,GSK1200043681,Supervalue Inc Rosario,ROSARIO,CAVITE,PH-CAV,4106,PHL,LFREG4A,LFREG07,ROSARIO,Asia/Manila,14.40899,120.858
LFL/TMS/PHL.GSK1200062240,GSK1200062240,SVI TRECE MARTIRES,TRECE MARTIRES CITY,CAVITE,PH-CAV,4109,PHL,LFREG4A,PH-CAV,TRECE MARTIRES CITY,Asia/Manila,14.2821,120.86617
LFL/TMS/PHL.GSK1400045406,GSK1400045406,SANFORD MKTG CORP SALAWAG,DASMARINAS,CAVITE,PH-CAV,4114,PHL,LFREG4A,PH-CAV,DASMARINAS,Asia/Manila,14.34068,120.98431
LFL/TMS/PHL.GSK1100290484,GSK1100290484,PADSA ENTERPRISES,CITY OF SAN FERNANDO,PAMPANGA,PH-PAM,2000,PHL,LFREG03,PH-PAM,CITY OF SAN FERNANDO,Asia/Manila,15.05928,120.65407
LFL/TMS/PHL.GSK1200043602,GSK1200043602,PADSA ENTERPRISES WAREHOUSE B,CITY OF SAN FERNANDO,PAMPANGA,PH-PAM,2000,PHL,LFREG03,PH-PAM,CITY OF SAN FERNANDO,Asia/Manila,15.05928,120.65407
LFL/TMS/PHL.GSK1200060402,GSK1200060402,SANFORD CABUYAO,CABUYAO CITY,LAGUNA,PH-LAG,4025,PHL,LFREG4A,PH-LAG,CABUYAO CITY,Asia/Manila,14.2276,121.13795
LFL/TMS/PHL.GSK1200043729,GSK1200043729,Puregold Price Club Inc Cainta,CAINTA,RIZAL,PH-RIZ,1900,PHL,LFRIZ01,PH-RIZ-2,CAINTA,Asia/Manila,14.62021,121.10142
LFL/TMS/PHL.GSK1200043870,GSK1200043870,WALTERMART VENTURES INC    CALAMBA,CALAMBA CITY,LAGUNA,PH-LAG,4027,PHL,LFREG4A,PH-LAG,CALAMBA CITY,Asia/Manila,14.19818,121.14784
LFL/TMS/PHL.GSK1200043890,GSK1200043890,SUPERVALUE INC CALAMBA,CALAMBA CITY,LAGUNA,PH-LAG,4027,PHL,LFREG4A,PH-LAG,CALAMBA CITY,Asia/Manila,14.20415,121.15524
LFL/TMS/PHL.GSK1200043918,GSK1200043918,PUREGOLD PRICE CLUB CALAMBA,CALAMBA CITY,LAGUNA,PH-LAG,4027,PHL,LFREG4A,PH-LAG,CALAMBA CITY,Asia/Manila,14.1948,121.16524
LFL/TMS/PHL.GSK1200043959,GSK1200043959,SANFORD MKTG CORP CALAMBA HALANG,CALAMBA CITY,LAGUNA,PH-LAG,4027,PHL,LFREG4A,PH-LAG,CALAMBA CITY,Asia/Manila,14.19581,121.16316
LFL/TMS/PHL.GSK1200043960,GSK1200043960,WALTERMART VENTURES INC    MAKILING,CALAMBA CITY,LAGUNA,PH-LAG,4027,PHL,LFREG4A,PH-LAG,CALAMBA CITY,Asia/Manila,14.16038,121.13856
LFL/TMS/PHL.GSK1200044004,GSK1200044004,PUREGOLD PRICE CLUB PARIAN,CALAMBA CITY,LAGUNA,PH-LAG,4027,PHL,LFREG4A,PH-LAG,CALAMBA CITY,Asia/Manila,14.21684,121.14392
LFL/TMS/PHL.GSK1200043603,GSK1200043603,PADSA ENTERPRISES WAREHOUSE C,CITY OF SAN FERNANDO,PAMPANGA,PH-PAM,2000,PHL,LFREG03,PH-PAM,CITY OF SAN FERNANDO,Asia/Manila,15.07848,120.64295
LFL/TMS/PHL.GSK1200044206,GSK1200044206,PUREGOLD PRICE CLUB LA UNION,SAN FERNANDO CITY,LA UNION,PH-LUN,2500,PHL,LFREG01,PH-LUN,SAN FERNANDO CITY,Asia/Manila,16.62677,120.31931
LFL/TMS/PHL.GSK1200044202,GSK1200044202,PUREGOLD PRICE CLUB ANDALUCIA,CITY OF SAN FERNANDO,PAMPANGA,PH-PAM,2000,PHL,LFREG03,PH-PAM,CITY OF SAN FERNANDO,Asia/Manila,15.0492,120.6637
LFL/TMS/PHL.GSK1200044855,GSK1200044855,SANFORD MARKETING CORP? LA UNION,SAN FERNANDO CITY,LA UNION,PH-LUN,2500,PHL,LFREG01,PH-LUN,SAN FERNANDO CITY,Asia/Manila,16.61705,120.31446
LFL/TMS/PHL.GSK1200045425,GSK1200045425,COMPANYSANFORD MKTG CORP LA UNION,SAN FERNANDO CITY,LA UNION,PH-LUN,2500,PHL,LFREG01,PH-LUN,SAN FERNANDO CITY,Asia/Manila,16.61717,120.31401
LFL/TMS/PHL.GSK1400045425,GSK1400045425,SANFORD MKTG CORP LA UNION,SAN FERNANDO CITY,LA UNION,PH-LUN,2500,PHL,LFREG01,PH-LUN,SAN FERNANDO CITY,Asia/Manila,16.61705,120.31446
LFL/TMS/PHL.GSK1200044255,GSK1200044255,Super Shopping Market Daet,DAET,CAMARINES NORTE,PH-CAN,4600,PHL,LFREG05,PH-CAN,DAET,Asia/Manila,14.11699,122.95283
LFL/TMS/PHL.GSK1200043596,GSK1200043596,Granville SC Mgt Pangasinan,DAGUPAN,PANGASINAN,PH-PAN,2400,PHL,LFREG01,PH-PAN,DAGUPAN,Asia/Manila,16.04324,120.3572
LFL/TMS/PHL.GSK1200044147,GSK1200044147,Puregold Price Club Bonuan Dagupan,DAGUPAN,PANGASINAN,PH-PAN,2400,PHL,LFREG01,PH-PAN,DAGUPAN,Asia/Manila,16.0387,120.34552
LFL/TMS/PHL.GSK1200047978,GSK1200047978,Granville SC Mgt Ilocos,BANTAY,ILOCOS SUR,PH-ILS,2727,PHL,LFREG01,PH-ILS,BANTAY,Asia/Manila,17.58382,120.38772
LFL/TMS/PHL.GSK1200043907,GSK1200043907,Super Shopping Market BatangasCity,BATANGAS CITY,BATANGAS,PH-BTG,4200,PHL,LFREG4A,PH-BTG,BATANGAS CITY,Asia/Manila,13.75638,121.06873
LFL/TMS/PHL.GSK1200043663,GSK1200043663,Supervalue Inc Batangas City,BATANGAS CITY,BATANGAS,PH-BTG,4200,PHL,LFREG4A,PH-BTG,BATANGAS CITY,Asia/Manila,13.7557,121.06983
LFL/TMS/PHL.GSK1100290478,GSK1100290478,King Alton Enterprise Inc,BATANGAS CITY,BATANGAS,PH-BTG,4200,PHL,LFREG4A,PH-BTG,BATANGAS CITY,Asia/Manila,13.75746,121.05812
LFL/TMS/PHL.GSK1200043969,GSK1200043969,PuregoldPriceClub San Juan Batangas,SAN JUAN,BATANGAS,PH-BTG,4226,PHL,LFREG4A,PH-BTG,SAN JUAN,Asia/Manila,13.8256,121.3947
LFL/TMS/PHL.GSK1200044030,GSK1200044030,ROBINSONS SMKT NUCITI BATANGAS,BATANGAS CITY,BATANGAS,PH-BTG,4200,PHL,LFREG4A,PH-BTG,BATANGAS CITY,Asia/Manila,13.75969,121.05715
LFL/TMS/PHL.GSK1200044036,GSK1200044036,PuregoldPriceClub Calicanto Batngas,BATANGAS CITY,BATANGAS,PH-BTG,4200,PHL,LFREG4A,PH-BTG,BATANGAS CITY,Asia/Manila,13.7644,121.05659
LFL/TMS/PHL.GSK1200044267,GSK1200044267,PUREGOLD PRICE CLUB INC LIPA,LIPA,BATANGAS,PH-BTG,4217,PHL,LFREG4A,PH-BTG,LIPA,Asia/Manila,13.94424,121.16684
LFL/TMS/PHL.GSK1200044293,GSK1200044293,Super Shopping Market-Batangas 2,BATANGAS CITY,BATANGAS,PH-BTG,4200,PHL,LFREG4A,PH-BTG,BATANGAS CITY,Asia/Manila,13.75475,121.06884
LFL/TMS/PHL.GSK1200048648,GSK1200048648,Sanford Nasugbu Batangas,NASUGBU,BATANGAS,PH-BTG,4231,PHL,LFREG4A,PH-BTG,NASUGBU,Asia/Manila,14.07229,120.63255
LFL/TMS/PHL.GSK1200044278,GSK1200044278,SNACK EXCHANGE  BATANGAS,BATANGAS CITY,BATANGAS,PH-BTG,4200,PHL,LFREG4A,PH-BTG,BATANGAS CITY,Asia/Manila,13.7557,121.06983
LFL/TMS/PHL.GSK1200044239,GSK1200044239,Puregold Price Club Bayambang,BAYAMBANG,PANGASINAN,PH-PAN,2423,PHL,LFREG01,PH-PAN,BAYAMBANG,Asia/Manila,15.80977,120.45747
LFL/TMS/PHL.GSK1200043930,GSK1200043930,SANFORD MARKETING CORP  BAYAMBANG,BAYAMBANG,PANGASINAN,PH-PAN,2423,PHL,LFREG01,PH-PAN,BAYAMBANG,Asia/Manila,15.8097,120.4577
LFL/TMS/PHL.GSK1200044300,GSK1200044300,SANFORD MC BAYOMBONG,BAYOMBONG,NUEVA VIZCAYA,PH-NUV,3700,PHL,LFREG02,PH-NUV,BAYOMBONG,Asia/Manila,16.48278,121.15015
LFL/TMS/PHL.GSK1100290533,GSK1100290533,ROYAL AMALGAMATED PRODUCT INC.,BINAN CITY,LAGUNA,PH-LAG,4024,PHL,LFREG4A,PH-LAG,BINAN CITY,Asia/Manila,14.34295,121.06887
LFL/TMS/PHL.GSK1200047175,GSK1200047175,SANFORD BINALONAN,BINALONAN,PANGASINAN,PH-PAN,2436,PHL,LFREG01,PH-PAN,BINALONAN,Asia/Manila,16.04621,120.59295
LFL/TMS/PHL.GSK1200043705,GSK1200043705,Puregold Price Club Inc Laguna,BINAN CITY,LAGUNA,PH-LAG,4024,PHL,LFREG4A,PH-LAG,BINAN CITY,Asia/Manila,14.36801,121.05021
LFL/TMS/PHL.GSK1200043950,GSK1200043950,SANFORD MARKETING CORP MARKET BINAN,BINAN CITY,LAGUNA,PH-LAG,4024,PHL,LFREG4A,PH-LAG,BINAN CITY,Asia/Manila,14.33262,121.08232
LFL/TMS/PHL.GSK1200044104,GSK1200044104,PUREGOLD PRICE CLUB BINAN,BINAN CITY,LAGUNA,PH-LAG,4024,PHL,LFREG4A,PH-LAG,BINAN CITY,Asia/Manila,14.32658,121.08749
LFL/TMS/PHL.GSK1200044265,GSK1200044265,PUREGOLD  PRICE CLUB  INC  HALANG,CALAMBA CITY,LAGUNA,PH-LAG,4027,PHL,LFREG4A,PH-LAG,CALAMBA CITY,Asia/Manila,14.19481,121.16522
LFL/TMS/PHL.GSK1200043605,GSK1200043605,SUPER SHOPPING MARKET MARILAO,MARILAO,BULACAN,PH-BUL,3019,PHL,LFREG03,PH-BUL,MARILAO,Asia/Manila,14.75459,120.9563
LFL/TMS/PHL.GSK1200043615,GSK1200043615,SUPER SHOPPING MARKET BALIWAG,BALIUAG,BULACAN,PH-BUL,3006,PHL,LFREG03,PH-BUL,BALIUAG,Asia/Manila,14.96063,120.88982
LFL/TMS/PHL.GSK1200043658,GSK1200043658,SANFORD MARKETING CORP BALIUAG 1,BALIUAG,BULACAN,PH-BUL,3006,PHL,LFREG03,PH-BUL,BALIUAG,Asia/Manila,14.95448,120.90029
LFL/TMS/PHL.GSK1200043704,GSK1200043704,PUREGOLD PRICE CLUB BALIWAG,BALIUAG,BULACAN,PH-BUL,3006,PHL,LFREG03,PH-BUL,BALIUAG,Asia/Manila,14.96231,120.897
LFL/TMS/PHL.GSK1200043715,GSK1200043715,PUREGOLD PRICE CLUB MEYCAUAYAN,MEYCAUAYAN,BULACAN,PH-BUL,3020,PHL,LFREG03,PH-BUL,MEYCAUAYAN,Asia/Manila,14.7263,120.96019
LFL/TMS/PHL.GSK1200043861,GSK1200043861,WALTERMART SMKT INC PLARIDEL,PLARIDEL,BULACAN,PH-BUL,3004,PHL,LFREG03,PH-BUL,PLARIDEL,Asia/Manila,14.88158,120.8664
LFL/TMS/PHL.GSK1200043719,GSK1200043719,PUREGOLD PRICE CLUB GUIGUINTO,GUIGUINTO,BULACAN,PH-BUL,3015,PHL,LFREG03,PH-BUL,GUIGUINTO,Asia/Manila,14.82837,120.88463
LFL/TMS/PHL.GSK1200043863,GSK1200043863,WALTERMART SMKT INC STA MARIA,SANTA MARIA,BULACAN,PH-BUL,3022,PHL,LFREG03,PH-BUL,SANTA MARIA,Asia/Manila,14.82222,120.9546
LFL/TMS/PHL.GSK1200043917,GSK1200043917,PUREGOLD PRICE CLUB DEL MONTE,SAN JOSE DEL MONTE,BULACAN,PH-BUL,3023,PHL,LFREG03,PH-BUL,SAN JOSE DEL MONTE,Asia/Manila,14.63764,120.99663
LFL/TMS/PHL.GSK1200043919,GSK1200043919,PUREGOLD PRICE CLUB STA MARIA,SANTA MARIA,BULACAN,PH-BUL,3022,PHL,LFREG03,PH-BUL,SANTA MARIA,Asia/Manila,14.81281,120.94977
LFL/TMS/PHL.GSK1200043937,GSK1200043937,SANFORD MARKETING CORP MALHACAN,MEYCAUAYAN,BULACAN,PH-BUL,3020,PHL,LFREG03,PH-BUL,MEYCAUAYAN,Asia/Manila,14.74392,120.97062
LFL/TMS/PHL.GSK1200043951,GSK1200043951,SANFORD MKTG CORP STA MARIA BULACAN,SANTA MARIA,BULACAN,PH-BUL,3022,PHL,LFREG03,PH-BUL,SANTA MARIA,Asia/Manila,14.79365,120.87918
LFL/TMS/PHL.GSK1200060303,GSK1200060303,SANFORD ALAMINOS,ALAMINOS CITY,PANGASINAN,PH-PAN,2404,PHL,LFREG01,PH-PAN,ALAMINOS CITY,Asia/Manila,16.15547,119.98045
LFL/TMS/PHL.GSK1100290493,GSK1100290493,PUREGOLD DUTY FREE INC,ANGELES CITY,PAMPANGA,PH-PAM,2009,PHL,LFREG03,PH-PAM,ANGELES CITY,Asia/Manila,15.1941,120.5299
LFL/TMS/PHL.GSK1200043609,GSK1200043609,SUPER SHOPPING MARKET CLARK,ANGELES CITY,PAMPANGA,PH-PAM,2009,PHL,LFREG03,PH-PAM,ANGELES CITY,Asia/Manila,15.16883,120.58009
LFL/TMS/PHL.GSK1200043700,GSK1200043700,PUREGOLD PRICE CLUB BALIBAGO,ANGELES CITY,PAMPANGA,PH-PAM,2009,PHL,LFREG03,PH-PAM,ANGELES CITY,Asia/Manila,15.1606,120.59136
LFL/TMS/PHL.GSK1200043738,GSK1200043738,PUREGOLD PRICE CLUB INC ANGELES,ANGELES CITY,PAMPANGA,PH-PAM,2009,PHL,LFREG03,PH-PAM,ANGELES CITY,Asia/Manila,15.13895,120.58809
LFL/TMS/PHL.GSK1200043914,GSK1200043914,SANFORD MARKETING CORP  ANGELES,ANGELES CITY,PAMPANGA,PH-PAM,2009,PHL,LFREG03,PH-PAM,ANGELES CITY,Asia/Manila,15.13543,120.6014
LFL/TMS/PHL.GSK1200043962,GSK1200043962,SANFORD MKTG CORP BALIBAGO ANGELES,ANGELES CITY,PAMPANGA,PH-PAM,2009,PHL,LFREG03,PH-PAM,ANGELES CITY,Asia/Manila,15.16232,120.5909
LFL/TMS/PHL.GSK1200044197,GSK1200044197,SNACK EXCHANGE MRCNTILESTORESCLARK,ANGELES CITY,PAMPANGA,PH-PAM,2009,PHL,LFREG03,PH-PAM,ANGELES CITY,Asia/Manila,15.16883,120.58009
LFL/TMS/PHL.GSK1200044858,GSK1200044858,PUREGOLD PRICE CLUB DON J ANGELES20127709,ANGELES CITY,PAMPANGA,PH-PAM,2009,PHL,LFREG03,PH-PAM,ANGELES CITY,Asia/Manila,15.16317,120.55559
LFL/TMS/PHL.GSK1200043832,GSK1200043832,RUSTANS SUPERCNTRSHOPWISE ANTIPOLO,ANTIPOLO,RIZAL,PH-RIZ,1870,PHL,LFRIZ01,PH-RIZ-2,ANTIPOLO,Asia/Manila,14.58135,121.19152
LFL/TMS/PHL.GSK1200043932,GSK1200043932,Supervalue Inc Masinag Antipolo,ANTIPOLO,RIZAL,PH-RIZ,1870,PHL,LFRIZ01,PH-RIZ-2,ANTIPOLO,Asia/Manila,14.62539,121.12113
LFL/TMS/PHL.GSK1200043948,GSK1200043948,Puregold Price Club Antipolo,ANTIPOLO,RIZAL,PH-RIZ,1870,PHL,LFRIZ01,PH-RIZ-2,ANTIPOLO,Asia/Manila,14.58751,121.17289
LFL/TMS/PHL.GSK1200044131,GSK1200044131,Puregold Price Club Antipolo Parco,ANTIPOLO,RIZAL,PH-RIZ,1870,PHL,LFRIZ01,PH-RIZ-2,ANTIPOLO,Asia/Manila,14.58662,121.17295
LFL/TMS/PHL.GSK1200044110,GSK1200044110,Super Shopping Market SSM Antipolo,ANTIPOLO,RIZAL,PH-RIZ,1870,PHL,LFRIZ01,PH-RIZ-2,ANTIPOLO,Asia/Manila,14.57576,121.17698
LFL/TMS/PHL.GSK1200043859,GSK1200043859,PUREGOLD PRICE CLUB INC BACOOR,BACOOR CITY,CAVITE,PH-CAV,4102,PHL,LFREG4A,PH-CAV,BACOOR CITY,Asia/Manila,14.46246,120.9613
LFL/TMS/PHL.GSK1200043868,GSK1200043868,WALTERMART VENTURES INC    IMUS,IMUS CITY,CAVITE,PH-CAV,4103,PHL,LFREG4A,PH-CAV,IMUS CITY,Asia/Manila,14.47603,121.0523
LFL/TMS/PHL.GSK1200043869,GSK1200043869,WALTERMART VENTURES INC GEN TRIAS,GENERAL TRIAS CITY,CAVITE,PH-CAV,4107,PHL,LFREG4A,PH-CAV,GENERAL TRIAS CITY,Asia/Manila,14.47603,121.0523
LFL/TMS/PHL.GSK1200043892,GSK1200043892,Puregold Price Club Tanza,TANZA,CAVITE,PH-CAV,4108,PHL,LFREG4A,PH-CAV,TANZA,Asia/Manila,14.39326,120.85351
LFL/TMS/PHL.GSK1200043936,GSK1200043936,SUPER SHOPPING MARKET IMUS CAVITE,IMUS CITY,CAVITE,PH-CAV,4103,PHL,LFREG4A,PH-CAV,IMUS CITY,Asia/Manila,14.40157,120.9394
LFL/TMS/PHL.GSK1200043993,GSK1200043993,Sanford Mktg Corp SMC DASSalitran,DASMARINAS,CAVITE,PH-CAV,4114,PHL,LFREG4A,PH-CAV,DASMARINAS,Asia/Manila,14.34963,120.93855
LFL/TMS/PHL.GSK1200044011,GSK1200044011,Waltermart Smkt Inc Gen Trias,GENERAL TRIAS CITY,CAVITE,PH-CAV,4107,PHL,LFREG4A,PH-CAV,GENERAL TRIAS CITY,Asia/Manila,14.2912,120.90829
LFL/TMS/PHL.GSK1200044010,GSK1200044010,Waltermart Supermarket Inc Imus,IMUS CITY,CAVITE,PH-CAV,4103,PHL,LFREG4A,PH-CAV,IMUS CITY,Asia/Manila,14.42393,120.94043
LFL/TMS/PHL.GSK1200044012,GSK1200044012,Waltermart Supermarket Inc Carmona,CARMONA,CAVITE,PH-CAV,4116,PHL,LFREG4A,PH-CAV,CARMONA,Asia/Manila,14.31377,121.05054
LFL/TMS/PHL.GSK1200044016,GSK1200044016,Waltermart Smkt Inc Dasmarinas,DASMARINAS,CAVITE,PH-CAV,4114,PHL,LFREG4A,PH-CAV,DASMARINAS,Asia/Manila,14.32507,120.94143
LFL/TMS/PHL.GSK1200044073,GSK1200044073,PUREGOLD PRICE CLUB ANABU,IMUS CITY,CAVITE,PH-CAV,4103,PHL,LFREG4A,PH-CAV,IMUS CITY,Asia/Manila,14.3773,120.93976
LFL/TMS/PHL.GSK1200044074,GSK1200044074,PUREGOLDPRICECLUB MOLINO BACOOR CAV,BACOOR CITY,CAVITE,PH-CAV,4102,PHL,LFREG4A,PH-CAV,BACOOR CITY,Asia/Manila,14.41097,120.97557
LFL/TMS/PHL.GSK1200044091,GSK1200044091,Waltermart SmktInc Trece Martires,TRECE MARTIRES CITY,CAVITE,PH-CAV,4109,PHL,LFREG4A,PH-CAV,TRECE MARTIRES CITY,Asia/Manila,14.28016,120.87036
LFL/TMS/PHL.GSK1200044082,GSK1200044082,PUREGOLD PRICE CLUB GENERAL TRIAS,GENERAL TRIAS CITY,CAVITE,PH-CAV,4107,PHL,LFREG4A,PH-CAV,GENERAL TRIAS CITY,Asia/Manila,14.39318,120.85414
LFL/TMS/PHL.GSK1200044112,GSK1200044112,Sanford Marketing Corp Kawit Cavite,KAWIT,CAVITE,PH-CAV,4104,PHL,LFREG4A,PH-CAV,KAWIT,Asia/Manila,14.44947,120.92128
LFL/TMS/PHL.GSK1200044029,GSK1200044029,PUREGOLD PRICE CLUB SAN JOSE,SAN JOSE DEL MONTE,BULACAN,PH-BUL,3023,PHL,LFREG03,PH-BUL,SAN JOSE DEL MONTE,Asia/Manila,14.8139,121.07114
LFL/TMS/PHL.GSK1200044062,GSK1200044062,PUREGOLD PRICE CLUB PLARIDEL,PLARIDEL,BULACAN,PH-BUL,3004,PHL,LFREG03,PH-BUL,PLARIDEL,Asia/Manila,14.87704,120.86304
LFL/TMS/PHL.GSK1200044087,GSK1200044087,PUREGOLD PRICE CLUB HAGONOY BULACAN,HAGONOY,BULACAN,PH-BUL,3002,PHL,LFREG03,PH-BUL,HAGONOY,Asia/Manila,14.83648,120.74139
LFL/TMS/PHL.GSK1200044088,GSK1200044088,PUREGOLDPRICECLUB CMALIG MEYCAUAYAN,MEYCAUAYAN,BULACAN,PH-BUL,3020,PHL,LFREG03,PH-BUL,MEYCAUAYAN,Asia/Manila,14.76449,120.98866
LFL/TMS/PHL.GSK1200044119,GSK1200044119,WALTERMART SMKT INC GUIGUINTO,GUIGUINTO,BULACAN,PH-BUL,3015,PHL,LFREG03,PH-BUL,GUIGUINTO,Asia/Manila,14.82754,120.87414
LFL/TMS/PHL.GSK1200044128,GSK1200044128,PUREGOLD PRICE CLUB ALIW MEYCAUYAN,MEYCAUAYAN,BULACAN,PH-BUL,3020,PHL,LFREG03,PH-BUL,MEYCAUAYAN,Asia/Manila,14.73656,120.9608
LFL/TMS/PHL.GSK1200044132,GSK1200044132,PUREGOLD PRICE CLUB GUIGUINTO,GUIGUINTO,BULACAN,PH-BUL,3015,PHL,LFREG03,PH-BUL,GUIGUINTO,Asia/Manila,14.82837,120.88463
LFL/TMS/PHL.GSK1200044146,GSK1200044146,SANFORD MKTG CORP TM CENTERPOINT,SAN JOSE DEL MONTE,BULACAN,PH-BUL,3023,PHL,LFREG03,PH-BUL,SAN JOSE DEL MONTE,Asia/Manila,14.78932,121.07399
LFL/TMS/PHL.GSK1200044155,GSK1200044155,SANFORD MKTG CORP SMC SAN ILDEFONSO,SAN ILDEFONSO,BULACAN,PH-BUL,3010,PHL,LFREG03,PH-BUL,SAN ILDEFONSO,Asia/Manila,15.07918,120.9414
LFL/TMS/PHL.GSK1200044243,GSK1200044243,PUREGOLD PRICE CLUB INC PANDI,PANDI,BULACAN,PH-BUL,3014,PHL,LFREG03,PH-BUL,PANDI,Asia/Manila,14.86277,120.93767
LFL/TMS/PHL.GSK1200044232,GSK1200044232,PUREGOLD PRICE CLUB MALLOS JUNCTION,MALOLOS,BULACAN,PH-BUL,3000,PHL,LFREG03,PH-BUL,MALOLOS,Asia/Manila,14.85205,120.81557
LFL/TMS/PHL.GSK1200044285,GSK1200044285,PUREGOLD TUNGKONG MANGGA BULACAN,SAN JOSE DEL MONTE,BULACAN,PH-BUL,3023,PHL,LFREG03,PH-BUL,SAN JOSE DEL MONTE,Asia/Manila,14.78793,121.07435
LFL/TMS/PHL.GSK1200060694,GSK1200060694,FIRST LANE NE DRT BALIUAG,BALIUAG,BULACAN,PH-BUL,3006,PHL,LFREG03,PH-BUL,BALIUAG,Asia/Manila,14.96517,120.90051
LFL/TMS/PHL.GSK1200061675,GSK1200061675,PUREGOLD MARILAO,MARILAO,BULACAN,PH-BUL,3019,PHL,LFREG03,PH-BUL,MARILAO,Asia/Manila,14.79157,121.01114
LFL/TMS/PHL.GSK1200044176,GSK1200044176,SNACK EXCHANGE MNILASOUTHERN MRILAO,MARILAO,BULACAN,PH-BUL,3019,PHL,LFREG03,PH-BUL,MARILAO,Asia/Manila,14.75459,120.9563
LFL/TMS/PHL.GSK1200062086,GSK1200062086,SVI SAN JOSE DEL MONTE,SAN JOSE DEL MONTE,BULACAN,PH-BUL,3023,PHL,LFREG03,PH-BUL,SAN JOSE DEL MONTE,Asia/Manila,14.8142,121.07174
LFL/TMS/PHL.GSK1200044196,GSK1200044196,SNACK EXCHANGE MRCNTILESTORE BALIWG,BALIUAG,BULACAN,PH-BUL,3006,PHL,LFREG03,PH-BUL,BALIUAG,Asia/Manila,14.96063,120.88982
LFL/TMS/PHL.GSK1100290479,GSK1100290479,IBEST CORPORATION,CABANATUAN,NUEVA ECIJA,PH-NUE,3100,PHL,LFREG03,PH-NUE,CABANATUAN,Asia/Manila,15.49163,120.98576
LFL/TMS/PHL.GSK1200044164,GSK1200044164,SNACK EXCHANGE MERCNTILESTORESGROUP,ANTIPOLO,RIZAL,PH-RIZ,1870,PHL,LFRIZ01,PH-RIZ-2,ANTIPOLO,Asia/Manila,14.62539,121.12113
LFL/TMS/PHL.GSK1200046931,GSK1200046931,RUSTAN?S FRESH ANTIPOLO,ANTIPOLO,RIZAL,PH-RIZ,1870,PHL,LFRIZ01,PH-RIZ-2,ANTIPOLO,Asia/Manila,14.58135,121.19152
LFL/TMS/PHL.GSK1200043943,GSK1200043943,SANFORD MKTG CORP APALIT PAMPANGA,APALIT,PAMPANGA,PH-PAM,2016,PHL,LFREG03,PH-PAM,APALIT,Asia/Manila,14.94861,120.7587
LFL/TMS/PHL.GSK1200044000,GSK1200044000,PUREGOLD PRICE CLUB ARAYAT,ARAYAT,PAMPANGA,PH-PAM,2012,PHL,LFREG03,PH-PAM,ARAYAT,Asia/Manila,15.15383,120.77026
LFL/TMS/PHL.GSK1200059436,GSK1200059436,PUREGOLD AGUINALDO HIGHWAY HABAY,BACOOR CITY,CAVITE,PH-CAV,4102,PHL,LFREG4A,PH-CAV,BACOOR CITY,Asia/Manila,14.43897,120.94919
LFL/TMS/PHL.GSK1200043668,GSK1200043668,Supervalue Inc Baguio,BAGUIO,BENGUET,PH-BEN,2600,PHL,LFREG01,PH-BEN,BAGUIO,Asia/Manila,16.40904,120.59947
LFL/TMS/PHL.GSK1200043736,GSK1200043736,Puregold Price Club Inc Baguio,BAGUIO,BENGUET,PH-BEN,2600,PHL,LFREG01,PH-BEN,BAGUIO,Asia/Manila,16.4131,120.57903
LFL/TMS/PHL.GSK1200044238,GSK1200044238,Puregold Price Club Bakakeng,BAGUIO,BENGUET,PH-BEN,2600,PHL,LFREG01,PH-BEN,BAGUIO,Asia/Manila,16.39445,120.58027
LFL/TMS/PHL.GSK1200061277,GSK1200061277,SANFORD MKTG CORP CEDAR PEAK,BAGUIO,BENGUET,PH-BEN,2600,PHL,LFREG01,PH-BEN,BAGUIO,Asia/Manila,16.41443,120.5974
LFL/TMS/PHL.GSK1200044129,GSK1200044129,PUREGOLD PRICE CLUB TRECE MARTIRES,TRECE MARTIRES CITY,CAVITE,PH-CAV,4109,PHL,LFREG4A,PH-CAV,TRECE MARTIRES CITY,Asia/Manila,14.28198,120.86785
LFL/TMS/PHL.GSK1200044145,GSK1200044145,SANFORD MKTG CORP SMCO ARCC BACOOR,BACOOR CITY,CAVITE,PH-CAV,4102,PHL,LFREG4A,PH-CAV,BACOOR CITY,Asia/Manila,14.3981,120.97791
LFL/TMS/PHL.GSK1200044184,GSK1200044184,RUSTANS INC WELLCOME LANDCASTER,IMUS CITY,CAVITE,PH-CAV,4103,PHL,LFREG4A,PH-CAV,IMUS CITY,Asia/Manila,14.39992,120.04519
LFL/TMS/PHL.GSK1200044199,GSK1200044199,Puregold Price Club Noveleta Cavite,NOVELETA,CAVITE,PH-CAV,4105,PHL,LFREG4A,PH-CAV,NOVELETA,Asia/Manila,14.42993,120.88352
LFL/TMS/PHL.GSK1200044205,GSK1200044205,PUREGOLD PRICE CLUB GEN TRIAS EXTRA,GENERAL TRIAS CITY,CAVITE,PH-CAV,4107,PHL,LFREG4A,PH-CAV,GENERAL TRIAS CITY,Asia/Manila,14.38028,120.87944
LFL/TMS/PHL.GSK1200044227,GSK1200044227,Sanford Marketing Corp Lumina Imus,IMUS CITY,CAVITE,PH-CAV,4103,PHL,LFREG4A,PH-CAV,IMUS CITY,Asia/Manila,14.42241,120.94192
LFL/TMS/PHL.GSK1200044219,GSK1200044219,Company E Corp Eunilaine Foodmart,DASMARINAS,CAVITE,PH-CAV,4114,PHL,LFREG4A,PH-CAV,DASMARINAS,Asia/Manila,14.34001,120.92845
LFL/TMS/PHL.GSK1200044228,GSK1200044228,SANFORD MKTG CORP MERIDIAN TAGAYTAY,TAGAYTAY CITY,CAVITE,PH-CAV,4120,PHL,LFREG4A,PH-CAV,TAGAYTAY CITY,Asia/Manila,14.20698,121.02313
LFL/TMS/PHL.GSK1200044235,GSK1200044235,SHOPWISE IMUS,IMUS CITY,CAVITE,PH-CAV,4103,PHL,LFREG4A,PH-CAV,IMUS CITY,Asia/Manila,14.39745,120.90633
LFL/TMS/PHL.GSK1200043630,GSK1200043630,SANFORD MARKETING CORP AMIGO,CABANATUAN,NUEVA ECIJA,PH-NUE,3100,PHL,LFREG03,PH-NUE,CABANATUAN,Asia/Manila,15.48715,120.9616
LFL/TMS/PHL.GSK1200043631,GSK1200043631,SANFORD MKTG CORP MEGA C CABANA,CABANATUAN,NUEVA ECIJA,PH-NUE,3100,PHL,LFREG03,PH-NUE,CABANATUAN,Asia/Manila,15.48787,120.96777
LFL/TMS/PHL.GSK1200043946,GSK1200043946,PUREGOLD PRICE CLUB CABANATUAN,CABANATUAN,NUEVA ECIJA,PH-NUE,3100,PHL,LFREG03,PH-NUE,CABANATUAN,Asia/Manila,15.48348,120.96307
LFL/TMS/PHL.GSK1200048835,GSK1200048835,PUREGOLD ZULUETA 00855,CABANATUAN,NUEVA ECIJA,PH-NUE,3100,PHL,LFREG03,PH-NUE,CABANATUAN,Asia/Manila,15.48002,120.95971
LFL/TMS/PHL.GSK1200059215,GSK1200059215,SUPERVALUE CABANATUAN,CABANATUAN,NUEVA ECIJA,PH-NUE,3100,PHL,LFREG03,PH-NUE,CABANATUAN,Asia/Manila,15.46658,120.95532
LFL/TMS/PHL.GSK1200060665,GSK1200060665,WALTERMART CABANATUAN,CABANATUAN,NUEVA ECIJA,PH-NUE,3100,PHL,LFREG03,PH-NUE,CABANATUAN,Asia/Manila,15.48689,120.97202
LFL/TMS/PHL.GSK1200060720,GSK1200060720,PUREGOLD CIRCUMFERENTIAL 00859,CABANATUAN,NUEVA ECIJA,PH-NUE,3100,PHL,LFREG03,PH-NUE,CABANATUAN,Asia/Manila,15.46823,120.96059
LFL/TMS/PHL.GSK1200060693,GSK1200060693,PUREGOLD PACIFIC MALL 00861,CABANATUAN,NUEVA ECIJA,PH-NUE,3100,PHL,LFREG03,PH-NUE,CABANATUAN,Asia/Manila,15.46047,120.94856
LFL/TMS/PHL.GSK1200060721,GSK1200060721,FIRST LANE NE CROSSING MAHARLIKA,CABANATUAN,NUEVA ECIJA,PH-NUE,3100,PHL,LFREG03,PH-NUE,CABANATUAN,Asia/Manila,15.4776,120.9592
LFL/TMS/PHL.GSK1200060722,GSK1200060722,PUREGOLD CABANATUAN PALENGKE 00856,CABANATUAN,NUEVA ECIJA,PH-NUE,3100,PHL,LFREG03,PH-NUE,CABANATUAN,Asia/Manila,15.48833,120.96365
LFL/TMS/PHL.GSK1200044298,GSK1200044298,SANFORD MC CABIAO NUEVA ECIJA,CABIAO,NUEVA ECIJA,PH-NUE,3107,PHL,LFREG03,PH-NUE,CABIAO,Asia/Manila,15.2505,120.85948
LFL/TMS/PHL.GSK1200044143,GSK1200044143,KAREILA SNR MMBERSHIP SHOPPING DVAO,CABUYAO CITY,LAGUNA,PH-LAG,4025,PHL,LFREG4A,PH-LAG,CABUYAO CITY,Asia/Manila,14.23324,121.10079
LFL/TMS/PHL.GSK1200044225,GSK1200044225,Waltermart Supermarket Cabuyao,CABUYAO CITY,LAGUNA,PH-LAG,4025,PHL,LFREG4A,PH-LAG,CABUYAO CITY,Asia/Manila,14.23274,121.13445
LFL/TMS/PHL.GSK1200061661,GSK1200061661,PUREGOLD CALASIAO PANGASINAN,CALASIAO,PANGASINAN,PH-PAN,2418,PHL,LFREG01,PH-PAN,CALASIAO,Asia/Manila,16.02169,120.35295
LFL/TMS/PHL.GSK1200044242,GSK1200044242,Puregold Price Club Calauan,CALAUAN,LAGUNA,PH-LAG,4012,PHL,LFREG4A,PH-LAG,CALAUAN,Asia/Manila,14.16353,121.30549
LFL/TMS/PHL.GSK1200043716,GSK1200043716,Puregold Price Club Caloocan,CALOOCAN SOUTH,NCR,PH-00,1400,PHL,LFNCR01,PH-00-5,CALOOCAN SOUTH,Asia/Manila,14.65352,120.98406
LFL/TMS/PHL.GSK1200044032,GSK1200044032,Super Shopping Market Monumento,CALOOCAN SOUTH,NCR,PH-00,1400,PHL,LFNCR01,PH-00-5,CALOOCAN SOUTH,Asia/Manila,14.6576,120.98348
LFL/TMS/PHL.GSK1200043727,GSK1200043727,Puregold Price Club Inc Zabarte,CALOOCAN NORTH,NCR,PH-00,1420,PHL,LFNCR01,PH-00-6,CALOOCAN NORTH,Asia/Manila,14.75563,121.04311
LFL/TMS/PHL.GSK1200044052,GSK1200044052,Sanford Mktg Corp Camarin Caloocan,CALOOCAN NORTH,NCR,PH-00,1420,PHL,LFNCR01,PH-00-6,CALOOCAN NORTH,Asia/Manila,14.75679,121.05968
LFL/TMS/PHL.GSK1200044056,GSK1200044056,Puregold Price Club Caloocan,CALOOCAN SOUTH,NCR,PH-00,1400,PHL,LFNCR01,PH-00-5,CALOOCAN SOUTH,Asia/Manila,14.65352,120.98406
LFL/TMS/PHL.GSK1200044117,GSK1200044117,Sanford Marketing Corp SMC Zabarte,CALOOCAN NORTH,NCR,PH-00,1420,PHL,LFNCR01,PH-00-6,CALOOCAN NORTH,Asia/Manila,14.75623,121.04311
LFL/TMS/PHL.GSK1200044264,GSK1200044264,PUREGOLD PRICE CLUB   BAGONG BARRIO,CALOOCAN SOUTH,NCR,PH-00,1400,PHL,LFNCR01,PH-00-5,CALOOCAN SOUTH,Asia/Manila,14.65652,120.98279
LFL/TMS/PHL.GSK1200043612,GSK1200043612,Super Shopping Market Pasig,PASIG,NCR,PH-00,1600,PHL,LFNCR01,PH-00-3,PASIG,Asia/Manila,14.58493,121.07684
LFL/TMS/PHL.GSK1200043655,GSK1200043655,Sanford Mktg Corp Amang Rodriguez,PASIG,NCR,PH-00,1600,PHL,LFNCR01,PH-00-3,PASIG,Asia/Manila,14.61031,121.0918
LFL/TMS/PHL.GSK1200043717,GSK1200043717,Puregold Price Club Pasig,PASIG,NCR,PH-00,1600,PHL,LFNCR01,PH-00-3,PASIG,Asia/Manila,14.5764,121.08006
LFL/TMS/PHL.GSK1200043844,GSK1200043844,RUSTANS SUPERCNTR PASIG WAREHOUSE,PASIG,NCR,PH-00,1600,PHL,LFNCR01,PH-00-3,PASIG,Asia/Manila,14.54946,121.08324
LFL/TMS/PHL.GSK1200043848,GSK1200043848,Rustans SupercntrMercedes,PASIG,NCR,PH-00,1600,PHL,LFNCR01,PH-00-3,PASIG,Asia/Manila,14.57114,121.0853
LFL/TMS/PHL.GSK1200043874,GSK1200043874,South Star Drug Inc Manila,PASIG,NCR,PH-00,1600,PHL,LFNCR01,PH-00-3,PASIG,Asia/Manila,14.5759,121.0867
LFL/TMS/PHL.GSK1200043981,GSK1200043981,ROBINSONS SMKT LUCKY GOLD ORTIGAS,PASIG,NCR,PH-00,1600,PHL,LFNCR01,PH-00-3,PASIG,Asia/Manila,14.59033,121.09456
LFL/TMS/PHL.GSK1200043947,GSK1200043947,Puregold Price Club C Raymundo,PASIG,NCR,PH-00,1600,PHL,LFNCR01,PH-00-3,PASIG,Asia/Manila,14.576,121.0855
LFL/TMS/PHL.GSK1200044028,GSK1200044028,ROBINSONS SUPERMARKET CORP  DC,PASIG,NCR,PH-00,1600,PHL,LFNCR01,PH-00-3,PASIG,Asia/Manila,14.47603,121.0523
LFL/TMS/PHL.GSK1200044214,GSK1200044214,SANFORD MKTG CORP FREE CHOICE PASIG,PASIG,NCR,PH-00,1600,PHL,LFNCR01,PH-00-3,PASIG,Asia/Manila,14.55787,121.08311
LFL/TMS/PHL.GSK1200044079,GSK1200044079,Puregold Price Club Pioneer Pasig,PASIG,NCR,PH-00,1600,PHL,LFNCR01,PH-00-3,PASIG,Asia/Manila,14.5764,121.08006
LFL/TMS/PHL.GSK1200044221,GSK1200044221,Company E Corp StaLucia Psig City,PASIG,NCR,PH-00,1600,PHL,LFNCR01,PH-00-3,PASIG,Asia/Manila,14.58887,121.09725
LFL/TMS/PHL.GSK1200044223,GSK1200044223,Puregold Price Club Malinao Pasig,PASIG,NCR,PH-00,1600,PHL,LFNCR01,PH-00-3,PASIG,Asia/Manila,14.55767,121.0762
LFL/TMS/PHL.GSK1200044247,GSK1200044247,Puregold Price Club Grand Ortigas,PASIG,NCR,PH-00,1600,PHL,LFNCR01,PH-00-3,PASIG,Asia/Manila,14.60518,121.02305
LFL/TMS/PHL.GSK1200044266,GSK1200044266,Puregold Price Club Inc Ligaya,PASIG,NCR,PH-00,1600,PHL,LFNCR01,PH-00-3,PASIG,Asia/Manila,14.61832,121.09448
LFL/TMS/PHL.GSK1200059304,GSK1200059304,PSJ FREE CHOICE MART,PASIG,NCR,PH-00,1600,PHL,LFNCR01,PH-00-3,PASIG,Asia/Manila,14.55591,121.10023
LFL/TMS/PHL.GSK1200044286,GSK1200044286,ROBINSON'S SUPERMARKET MEGA DC,MUNTINLUPA,NCR,PH-00,1770,PHL,LFNCR01,PH-00-1,MUNTINLUPA,Asia/Manila,14.435,121.042
LFL/TMS/PHL.GSK1200060308,GSK1200060308,Super 8 Retail Systems Inc,PASIG,NCR,PH-00,1600,PHL,LFNCR01,PH-00-3,PASIG,Asia/Manila,14.54889,121.08931
LFL/TMS/PHL.GSK1200060499,GSK1200060499,Rustans Fresh the Grove,PASIG,NCR,PH-00,1600,PHL,LFNCR01,PH-00-3,PASIG,Asia/Manila,14.58531,121.09787
LFL/TMS/PHL.GSK1200044229,GSK1200044229,ROBINSONS DEP STORE   ROXAS,TAGUIG,NCR,PH-00,1630,PHL,LFNCR01,PH-00-2,TAGUIG,Asia/Manila,14.47123,121.04008
LFL/TMS/PHL.GSK1200044231,GSK1200044231,Super Shopping Market SSM FTI,TAGUIG,NCR,PH-00,1630,PHL,LFNCR01,PH-00-2,TAGUIG,Asia/Manila,14.50583,121.05177
LFL/TMS/PHL.GSK1200044253,GSK1200044253,ROBINSONS DEPARTMENT STORE  MALALOS,TAGUIG,NCR,PH-00,1630,PHL,LFNCR01,PH-00-2,TAGUIG,Asia/Manila,14.47613,121.05277
LFL/TMS/PHL.GSK1200044254,GSK1200044254,ROBINSONS DEP STORE   SANTIAGO,TAGUIG,NCR,PH-00,1630,PHL,LFNCR01,PH-00-2,TAGUIG,Asia/Manila,14.47123,121.04008
LFL/TMS/PHL.GSK1200044272,GSK1200044272,ROBINSONS DEPT STORE AYALA CDO,TAGUIG,NCR,PH-00,1630,PHL,LFNCR01,PH-00-2,TAGUIG,Asia/Manila,14.47613,121.05277
LFL/TMS/PHL.GSK1200044273,GSK1200044273,ROBINSONS DEPT STORE ILOCOS NORTE,TAGUIG,NCR,PH-00,1630,PHL,LFNCR01,PH-00-2,TAGUIG,Asia/Manila,14.47613,121.05277
LFL/TMS/PHL.GSK1200044287,GSK1200044287,ROBINSON'S SMARKET - 8FORBES TAGUIG,TAGUIG,NCR,PH-00,1630,PHL,LFNCR01,PH-00-2,TAGUIG,Asia/Manila,14.47613,121.05277
LFL/TMS/PHL.GSK1200044297,GSK1200044297,ROBINSONS DS ANTIPOLO CITY,TAGUIG,NCR,PH-00,1630,PHL,LFNCR01,PH-00-2,TAGUIG,Asia/Manila,14.47123,121.04008
LFL/TMS/PHL.GSK1200044294,GSK1200044294,Rustan Supercenter ? BGC,TAGUIG,NCR,PH-00,1630,PHL,LFNCR01,PH-00-2,TAGUIG,Asia/Manila,14.55517,121.04836
LFL/TMS/PHL.GSK1200044296,GSK1200044296,ROBINSONS DS ZAPOTE RD,TAGUIG,NCR,PH-00,1630,PHL,LFNCR01,PH-00-2,TAGUIG,Asia/Manila,14.47123,121.04008
LFL/TMS/PHL.GSK1200059823,GSK1200059823,ROBINSONS DEPT STORE CEBU,TAGUIG,NCR,PH-00,1630,PHL,LFNCR01,PH-00-2,TAGUIG,Asia/Manila,14.47613,121.05277
LFL/TMS/PHL.GSK1200060521,GSK1200060521,Rustans Fresh Uptown,TAGUIG,NCR,PH-00,1630,PHL,LFNCR01,PH-00-2,TAGUIG,Asia/Manila,14.55211,121.05152
LFL/TMS/PHL.GSK1200046846,GSK1200046846,SANFORD TALAVERA,TALAVERA,NUEVA ECIJA,PH-NUE,3114,PHL,LFREG03,PH-NUE,TALAVERA,Asia/Manila,15.58273,120.92001
LFL/TMS/PHL.GSK1200043701,GSK1200043701,PUREGOLD PRICE CLUB TANUAN,TANAUAN CITY,BATANGAS,PH-BTG,4232,PHL,LFREG4A,PH-BTG,TANAUAN CITY,Asia/Manila,14.08099,121.14677
LFL/TMS/PHL.GSK1200043867,GSK1200043867,Waltermart Supermarket Inc Tanuan,TANAUAN CITY,BATANGAS,PH-BTG,4232,PHL,LFREG4A,PH-BTG,TANAUAN CITY,Asia/Manila,14.0666,121.15671
LFL/TMS/PHL.GSK1200043686,GSK1200043686,SUPERVALUE INC TARLAC,TARLAC CITY,TARLAC,PH-TAR,2300,PHL,LFREG03,PH-TAR,TARLAC CITY,Asia/Manila,15.47748,120.59468
LFL/TMS/PHL.GSK1200043972,GSK1200043972,PUREGOLD PRICE CLUB CAPAS,CAPAS,TARLAC,PH-TAR,2315,PHL,LFREG03,PH-TAR,CAPAS,Asia/Manila,15.34109,120.59394
LFL/TMS/PHL.GSK1200044077,GSK1200044077,PUREGOLDPRICECLUB CITY WALK TARLAC,TARLAC CITY,TARLAC,PH-TAR,2300,PHL,LFREG03,PH-TAR,TARLAC CITY,Asia/Manila,15.48476,120.589
LFL/TMS/PHL.GSK1200044108,GSK1200044108,PUREGOLDPRICECLUB TARLAC PALM PLAZA,TARLAC CITY,TARLAC,PH-TAR,2300,PHL,LFREG03,PH-TAR,TARLAC CITY,Asia/Manila,15.49673,120.59674
LFL/TMS/PHL.GSK1200060865,GSK1200060865,Robinsons Convenience Maybunga,PASIG,NCR,PH-00,1600,PHL,LFNCR01,PH-00-3,PASIG,Asia/Manila,14.57981,121.07893
LFL/TMS/PHL.GSK1200061765,GSK1200061765,PUREGOLD MERCEDES PASIG,PASIG,NCR,PH-00,1600,PHL,LFNCR01,PH-00-3,PASIG,Asia/Manila,14.56733,121.09464
LFL/TMS/PHL.GSK1100290499,GSK1100290499,ROBINSONS VENTURES CORPORATION,PASIG,NCR,PH-00,1600,PHL,LFNCR01,PH-00-3,PASIG,Asia/Manila,14.54899,121.08552
LFL/TMS/PHL.GSK1200043774,GSK1200043774,ROBINSONS SUPERMARKET ERMITA,PASIG,NCR,PH-00,1600,PHL,LFNCR01,PH-00-3,PASIG,Asia/Manila,14.47603,121.0523
LFL/TMS/PHL.GSK1200043775,GSK1200043775,ROBINSONS SUPERMARKET TUTUBAN,PASIG,NCR,PH-00,1600,PHL,LFNCR01,PH-00-3,PASIG,Asia/Manila,14.47603,121.0523
LFL/TMS/PHL.GSK1200043776,GSK1200043776,ROBINSONS SUPERMARKET   OTIS,PASIG,NCR,PH-00,1600,PHL,LFNCR01,PH-00-3,PASIG,Asia/Manila,14.47603,121.0523
LFL/TMS/PHL.GSK1200043777,GSK1200043777,ROBINSONS SUPERMARKET MALABON,PASIG,NCR,PH-00,1600,PHL,LFNCR01,PH-00-3,PASIG,Asia/Manila,14.47603,121.0523
LFL/TMS/PHL.GSK1200043778,GSK1200043778,ROBINSONS SUPERMARKET TIMOG,PASIG,NCR,PH-00,1600,PHL,LFNCR01,PH-00-3,PASIG,Asia/Manila,14.47603,121.0523
LFL/TMS/PHL.GSK1200043780,GSK1200043780,ROBINSONS SUPERMARKET BAESA,PASIG,NCR,PH-00,1600,PHL,LFNCR01,PH-00-3,PASIG,Asia/Manila,14.47603,121.0523
LFL/TMS/PHL.GSK1200043779,GSK1200043779,ROBINSONS SUPERMARKET VICTORY MALL,PASIG,NCR,PH-00,1600,PHL,LFNCR01,PH-00-3,PASIG,Asia/Manila,14.47603,121.0523
LFL/TMS/PHL.GSK1200043781,GSK1200043781,ROBINSONS SUPERMARKET AVENIDA,PASIG,NCR,PH-00,1600,PHL,LFNCR01,PH-00-3,PASIG,Asia/Manila,14.47603,121.0523
LFL/TMS/PHL.GSK1200043782,GSK1200043782,ROBINSONS SUPERMARKET GALLERIA,PASIG,NCR,PH-00,1600,PHL,LFNCR01,PH-00-3,PASIG,Asia/Manila,14.47603,121.0523
LFL/TMS/PHL.GSK1200043783,GSK1200043783,ROBINSONS SUPERMARKET PIONEER,PASIG,NCR,PH-00,1600,PHL,LFNCR01,PH-00-3,PASIG,Asia/Manila,14.47603,121.0523
LFL/TMS/PHL.GSK1200043784,GSK1200043784,ROBINSONS SUPERMARKET NAGA CITY,PASIG,NCR,PH-00,1600,PHL,LFNCR01,PH-00-3,PASIG,Asia/Manila,14.47603,121.0523
LFL/TMS/PHL.GSK1200043785,GSK1200043785,ROBINSONS SUPERMARKET METROPOLIS,PASIG,NCR,PH-00,1600,PHL,LFNCR01,PH-00-3,PASIG,Asia/Manila,14.59969,121.08727
LFL/TMS/PHL.GSK1200043786,GSK1200043786,ROBINSONS SUPERMARKET WOODSVILLE,PASIG,NCR,PH-00,1600,PHL,LFNCR01,PH-00-3,PASIG,Asia/Manila,14.54899,121.08552
LFL/TMS/PHL.GSK1200043787,GSK1200043787,ROBINSONS SUPERMARKET BF PQUE,PASIG,NCR,PH-00,1600,PHL,LFNCR01,PH-00-3,PASIG,Asia/Manila,14.47603,121.0523
LFL/TMS/PHL.GSK1200043789,GSK1200043789,ROBINSONS SUPERMARKET LOS BAN,PASIG,NCR,PH-00,1600,PHL,LFNCR01,PH-00-3,PASIG,Asia/Manila,14.54899,121.08552
LFL/TMS/PHL.GSK1200043788,GSK1200043788,ROBINSONS SUPERMARKET  MANDALUYONG,PASIG,NCR,PH-00,1600,PHL,LFNCR01,PH-00-3,PASIG,Asia/Manila,14.47603,121.0523
LFL/TMS/PHL.GSK1200044149,GSK1200044149,PUREGOLDPRICECLUB TARLAC PUB MRKET,TARLAC CITY,TARLAC,PH-TAR,2300,PHL,LFREG03,PH-TAR,TARLAC CITY,Asia/Manila,15.48904,120.59235
LFL/TMS/PHL.GSK1200044246,GSK1200044246,PUREGOLD PRICE CLUB  PALM PLAZA,TARLAC CITY,TARLAC,PH-TAR,2300,PHL,LFREG03,PH-TAR,TARLAC CITY,Asia/Manila,15.49673,120.59674
LFL/TMS/PHL.GSK1200044288,GSK1200044288,SANFORD MARKETING CORP- CAMILING,CAMILING,TARLAC,PH-TAR,2306,PHL,LFREG03,PH-TAR,CAMILING,Asia/Manila,15.68636,120.41266
LFL/TMS/PHL.GSK1200044179,GSK1200044179,SNACK EXCHANGE MNILASOUTHRN TARLAC,TARLAC CITY,TARLAC,PH-TAR,2300,PHL,LFREG03,PH-TAR,TARLAC CITY,Asia/Manila,15.47748,120.59468
LFL/TMS/PHL.GSK1200062242,GSK1200062242,Sanford Mktg Corp Tiaong,TIAONG,QUEZON,PH-QUE,4325,PHL,LFREG4A,PH-QUE,TIAONG,Asia/Manila,13.95854,121.32567
LFL/TMS/PHL.GSK1200059820,GSK1200059820,SMCO CITIWALK TARLAC,TARLAC CITY,TARLAC,PH-TAR,2300,PHL,LFREG03,PH-TAR,TARLAC CITY,Asia/Manila,15.48471,120.58916
LFL/TMS/PHL.GSK1200059972,GSK1200059972,PUREGOLD TRECE TOWER MALL,TRECE MARTIRES CITY,CAVITE,PH-CAV,4109,PHL,LFREG4A,PH-CAV,TRECE MARTIRES CITY,Asia/Manila,14.28166,120.86766
LFL/TMS/PHL.GSK1200043956,GSK1200043956,SANFORD MKTG CORP SMC TUGUEGARAO,TUGUEGARAO,CAGAYAN,PH-CAG,3500,PHL,LFREG02,PH-CAG,TUGUEGARAO,Asia/Manila,17.61468,121.72816
LFL/TMS/PHL.GSK1100290448,GSK1100290448,Gains Group Inc,VALENZUELA,NCR,PH-00,1441,PHL,LFNCR01,PH-00-5,VALENZUELA,Asia/Manila,14.71113,120.98478
LFL/TMS/PHL.GSK1200043606,GSK1200043606,Super Shopping Market Valenzuela,VALENZUELA,NCR,PH-00,1441,PHL,LFNCR01,PH-00-5,VALENZUELA,Asia/Manila,14.68496,120.97698
LFL/TMS/PHL.GSK1200043985,GSK1200043985,Puregold Malinta,VALENZUELA,NCR,PH-00,1441,PHL,LFNCR01,PH-00-5,VALENZUELA,Asia/Manila,14.70852,120.99392
LFL/TMS/PHL.GSK1200043722,GSK1200043722,Puregold Price Club Valenzuela,VALENZUELA,NCR,PH-00,1441,PHL,LFNCR01,PH-00-5,VALENZUELA,Asia/Manila,14.69771,120.96223
LFL/TMS/PHL.GSK1200044031,GSK1200044031,SANFORD MARKETING CORP SMCO MALINTA,VALENZUELA,NCR,PH-00,1441,PHL,LFNCR01,PH-00-5,VALENZUELA,Asia/Manila,14.6928,120.96408
LFL/TMS/PHL.GSK1200044076,GSK1200044076,PuregoldPriceClub Sntiago Vlenzuela,VALENZUELA,NCR,PH-00,1441,PHL,LFNCR01,PH-00-5,VALENZUELA,Asia/Manila,14.6909,120.96234
LFL/TMS/PHL.GSK1200044192,GSK1200044192,Sanford Marketing Corp Marulas,VALENZUELA,NCR,PH-00,1441,PHL,LFNCR01,PH-00-5,VALENZUELA,Asia/Manila,14.67432,120.98336
LFL/TMS/PHL.GSK1200060731,GSK1200060731,Puregold Malanday,VALENZUELA,NCR,PH-00,1441,PHL,LFNCR01,PH-00-5,VALENZUELA,Asia/Manila,14.71763,120.95754
LFL/TMS/PHL.GSK1200044105,GSK1200044105,Puregold Price Club Vigan,VIGAN,ILOCOS SUR,PH-ILS,2700,PHL,LFREG01,PH-ILS,VIGAN,Asia/Manila,17.56747,120.38505
LFL/TMS/PHL.GSK1200044856,GSK1200044856,Puregold Price Club? JR Karuhatan,VALENZUELA,NCR,PH-00,1441,PHL,LFNCR01,PH-00-5,VALENZUELA,Asia/Manila,14.68965,120.9736
LFL/TMS/PHL.GSK1200059973,GSK1200059973,PUREGOLD VILLASIS PANGASINAN,VILLASIS,PANGASINAN,PH-PAN,2427,PHL,LFREG01,PH-PAN,VILLASIS,Asia/Manila,15.90048,120.58917
LFL/TMS/PHL.GSK1200043790,GSK1200043790,ROBINSONS SUPERMARKET LIPA,PASIG,NCR,PH-00,1600,PHL,LFNCR01,PH-00-3,PASIG,Asia/Manila,14.47603,121.0523
LFL/TMS/PHL.GSK1200043791,GSK1200043791,ROBINSONS SUPERMARKET DASMARINAS,PASIG,NCR,PH-00,1600,PHL,LFNCR01,PH-00-3,PASIG,Asia/Manila,14.47603,121.0523
LFL/TMS/PHL.GSK1200043792,GSK1200043792,ROBINSONS SUPERMARKET IMUS,PASIG,NCR,PH-00,1600,PHL,LFNCR01,PH-00-3,PASIG,Asia/Manila,14.47603,121.0523
LFL/TMS/PHL.GSK1200043794,GSK1200043794,ROBINSONS SUPERMARKET TARGET MALL,PASIG,NCR,PH-00,1600,PHL,LFNCR01,PH-00-3,PASIG,Asia/Manila,14.54899,121.08552
LFL/TMS/PHL.GSK1200043793,GSK1200043793,ROBINSONS SUPERMARKET STA ROSA,PASIG,NCR,PH-00,1600,PHL,LFNCR01,PH-00-3,PASIG,Asia/Manila,14.47603,121.0523
LFL/TMS/PHL.GSK1200043795,GSK1200043795,ROBINSONS SUPERMARKET TAGAYTAY,PASIG,NCR,PH-00,1600,PHL,LFNCR01,PH-00-3,PASIG,Asia/Manila,14.47603,121.0523
LFL/TMS/PHL.GSK1200043796,GSK1200043796,ROBINSONS SUPERMARKET   PACITA,PASIG,NCR,PH-00,1600,PHL,LFNCR01,PH-00-3,PASIG,Asia/Manila,14.47603,121.0523
LFL/TMS/PHL.GSK1200043797,GSK1200043797,ROBINSONS SUPERMARKET PAMPANGA,PASIG,NCR,PH-00,1600,PHL,LFNCR01,PH-00-3,PASIG,Asia/Manila,14.47603,121.0523
LFL/TMS/PHL.GSK1200043798,GSK1200043798,ROBINSONS SUPERMARKET NEPO,PASIG,NCR,PH-00,1600,PHL,LFNCR01,PH-00-3,PASIG,Asia/Manila,14.54899,121.08552
LFL/TMS/PHL.GSK1200043800,GSK1200043800,ROBINSONS SUPERMARKET PULILAN,PASIG,NCR,PH-00,1600,PHL,LFNCR01,PH-00-3,PASIG,Asia/Manila,14.47603,121.0523
LFL/TMS/PHL.GSK1200043799,GSK1200043799,ROBINSONS SUPERMARKET DAGUPAN,PASIG,NCR,PH-00,1600,PHL,LFNCR01,PH-00-3,PASIG,Asia/Manila,14.47603,121.0523
LFL/TMS/PHL.GSK1200043801,GSK1200043801,ROBINSONS SUPERMARKET CABANATUAN,PASIG,NCR,PH-00,1600,PHL,LFNCR01,PH-00-3,PASIG,Asia/Manila,14.47603,121.0523
LFL/TMS/PHL.GSK1200043802,GSK1200043802,ROBINSONS SUPERMARKET TARLAC,PASIG,NCR,PH-00,1600,PHL,LFNCR01,PH-00-3,PASIG,Asia/Manila,14.47603,121.0523
LFL/TMS/PHL.GSK1200043803,GSK1200043803,ROBINSONS SUPERMARKET ILOCOS,PASIG,NCR,PH-00,1600,PHL,LFNCR01,PH-00-3,PASIG,Asia/Manila,14.47603,121.0523
LFL/TMS/PHL.GSK1200043804,GSK1200043804,ROBINSONS SUPERMARKET MALOLOS,PASIG,NCR,PH-00,1600,PHL,LFNCR01,PH-00-3,PASIG,Asia/Manila,14.47603,121.0523
LFL/TMS/PHL.GSK1200043805,GSK1200043805,ROBINSONS SUPERMARKET BALAGTAS,PASIG,NCR,PH-00,1600,PHL,LFNCR01,PH-00-3,PASIG,Asia/Manila,14.47603,121.0523
LFL/TMS/PHL.GSK1200043806,GSK1200043806,ROBINSONS SUPERMARKET METROEAST,PASIG,NCR,PH-00,1600,PHL,LFNCR01,PH-00-3,PASIG,Asia/Manila,14.47603,121.0523
LFL/TMS/PHL.GSK1200043808,GSK1200043808,ROBINSONS SUPERMARKET MARIKINA,PASIG,NCR,PH-00,1600,PHL,LFNCR01,PH-00-3,PASIG,Asia/Manila,14.47603,121.0523
LFL/TMS/PHL.GSK1200043807,GSK1200043807,ROBINSONS SUPERMARKET CAINTA,PASIG,NCR,PH-00,1600,PHL,LFNCR01,PH-00-3,PASIG,Asia/Manila,14.47603,121.0523
LFL/TMS/PHL.GSK1200044078,GSK1200044078,Puregold Junior Binan Jr,BINAN CITY,LAGUNA,PH-LAG,4024,PHL,LFREG4A,PH-LAG,BINAN CITY,Asia/Manila,14.32946,121.07623
LFL/TMS/PHL.GSK1200062234,GSK1200062234,SANFORD MKTG CORP PALIPARAN,DASMARINAS,CAVITE,PH-CAV,4114,PHL,LFREG4A,PH-CAV,DASMARINAS,Asia/Manila,14.3506,120.98062
LFL/TMS/PHL.GSK1200061908,GSK1200061908,PUREGOLD SUPER PALENGKE ANTIPOLO 00872,ANTIPOLO,RIZAL,PH-RIZ,1870,PHL,LFRIZ01,PH-RIZ-2,ANTIPOLO,Asia/Manila,14.58428,121.17827
LFL/TMS/PHL.GSK1200061905,GSK1200061905,PUREGOLD AMPID SAN MATEO 00874,SAN MATEO,RIZAL,PH-RIZ,1850,PHL,LFRIZ01,PH-RIZ-1,SAN MATEO,Asia/Manila,14.65539,121.11651
LFL/TMS/PHL.GSK1200062486,GSK1200062486,SANFORD MKTG PASEO REAL,TUGUEGARAO,CAGAYAN,PH-CAG,3500,PHL,LFREG02,PH-CAG,TUGUEGARAO,Asia/Manila,17.612,121.72989
LFL/TMS/PHL.GSK1200063275,GSK1200063275,KAREILA CDO 1,CABUYAO CITY,LAGUNA,PH-LAG,4025,PHL,LFREG4A,PH-LAG,CABUYAO CITY,Asia/Manila,14.23087,121.1199
LFL/TMS/PHL.GSK1100290464,GSK1100290464,Jakkar Marketing,DAVAO CITY,DAVAO DEL SUR,PH-DAS,8000,PHL,LFPU01,PH-DAS,DAVAO CITY,Asia/Manila,7.06557,125.59188
LFL/TMS/PHL.GSK1200063206,GSK1200063206,PG CENTRAL TOWN ANGELES,ANGELES CITY,PAMPANGA,PH-PAM,2009,PHL,LFREG03,PH-PAM,ANGELES CITY,Asia/Manila,15.16153,120.53809
LFL/TMS/PHL.GSK1200044096,GSK1200044096,PUREGOLD JUNIOR OLD CENTRO CAUAYAN,CAUAYAN CITY,ISABELA,PH-ISA,3305,PHL,LFREG02,PH-ISA,CAUAYAN CITY,Asia/Manila,16.93674,121.77374
LFL/TMS/PHL.GSK1200044130,GSK1200044130,PUREGOLD JUNIOR CABUYAO,CABUYAO CITY,LAGUNA,PH-LAG,4025,PHL,LFREG4A,PH-LAG,CABUYAO CITY,Asia/Manila,14.2756,121.12447
LFL/TMS/PHL.GSK1200064719,GSK1200064719,Puregold Sta Elena,MARIKINA,NCR,PH-RIZ,1800,PHL,LFRIZ01,PH-RIZ-1,MARIKINA,Asia/Manila,14.63331,121.09664
LFL/TMS/PHL.GSK1200063032,GSK1200063032,PUREGOLD PRICE CLUB CARMONA CAVITE,CARMONA,CAVITE,PH-CAV,4116,PHL,LFREG4A,PH-CAV,CARMONA,Asia/Manila,14.31549,121.05488
LFL/TMS/PHL.GSK1200065305,GSK1200065305,Sanford Bagbaguin,CALOOCAN NORTH,NCR,PH-00,1420,PHL,LFNCR01,PH-00-6,CALOOCAN NORTH,Asia/Manila,14.71994,121.0149
LFL/TMS/PHL.GSK1200063276,GSK1200063276,SANFORD CONCEPCION TARLAC,CONCEPCION,TARLAC,PH-TAR,2316,PHL,LFREG03,PH-TAR,CONCEPCION,Asia/Manila,15.32414,120.65139
LFL/TMS/PHL.GSK1200061487,GSK1200061487,PUREGOLD CIRCUMFERENTIAL ANTIPOLO 00873,ANTIPOLO,RIZAL,PH-RIZ,1870,PHL,LFRIZ01,PH-RIZ-2,ANTIPOLO,Asia/Manila,14.58434,121.1784
LFL/TMS/PHL.GSK1200063120,GSK1200063120,SANFORD ILGAN 3,ILAGAN,ISABELA,PH-ISA,3300,PHL,LFREG02,PH-ISA,ILAGAN,Asia/Manila,17.1291,121.86585
LFL/TMS/PHL.GSK1200065993,GSK1200065993,Puregold Navotas,NAVOTAS,NCR,PH-00,1485,PHL,LFNCR01,PH-00-5,NAVOTAS,Asia/Manila,14.65899,120.94722
LFL/TMS/PHL.GSK1200065396,GSK1200065396,Rustans Paradigm,PASIG,NCR,PH-00,1600,PHL,LFNCR01,PH-00-3,PASIG,Asia/Manila,14.58025,121.06446
LFL/TMS/PHL.GSK1200068645,GSK1200068645,PUREGOLD OLONGAPO,OLONGAPO,ZAMBALES,PH-ZMB,2200,PHL,LFREG03,PH-ZMB,OLONGAPO,Asia/Manila,14.82481,120.28026
LFL/TMS/PHL.GSK10FT,GSK10FT,GSK10FT,MAKATI,NCR,PH-00,1200,PHL,LFNCR01,PH-00-2,MAKATI,Asia/Manila,14.53935,121.01909
LFL/TMS/PHL.RCDGUZMAN,RCDGUZMAN,R.C. DE GUZMAN TRUCKING & TRANSPORT SERVICE,BINANGONAN,RIZAL,NULL,1940,PHL,NULL,NULL,NULL,Asia/Manila,NULL,NULL
LFL/TMS/PHL.GSK20FT,GSK20FT,GSK20FT,MAKATI,NCR,PH-00,1200,PHL,LFNCR01,PH-00-2,MAKATI,Asia/Manila,14.53935,121.01909
LFL/TMS/PHL.GSK1200043810,GSK1200043810,ROBINSONS SUPERMARKET NOVALICHES,PASIG,NCR,PH-00,1600,PHL,LFNCR01,PH-00-3,PASIG,Asia/Manila,14.47603,121.0523
LFL/TMS/PHL.GSK1200043809,GSK1200043809,ROBINSONS SUPERMARKET COMMONWEALTH,PASIG,NCR,PH-00,1600,PHL,LFNCR01,PH-00-3,PASIG,Asia/Manila,14.47603,121.0523
LFL/TMS/PHL.GSK1200043811,GSK1200043811,ROBINSONS SUPERMARKET NOVASUSANO,PASIG,NCR,PH-00,1600,PHL,LFNCR01,PH-00-3,PASIG,Asia/Manila,14.54899,121.08552
LFL/TMS/PHL.GSK1200043812,GSK1200043812,ROBINSONS SUPERMARKET MONTALBAN,PASIG,NCR,PH-00,1600,PHL,LFNCR01,PH-00-3,PASIG,Asia/Manila,14.47603,121.0523
LFL/TMS/PHL.GSK1200043813,GSK1200043813,ROBINSONS SUPERMARKET CONGRESS,PASIG,NCR,PH-00,1600,PHL,LFNCR01,PH-00-3,PASIG,Asia/Manila,14.47603,121.0523
LFL/TMS/PHL.GSK1200043814,GSK1200043814,ROBINSONS SUPERMARKET CEBU FUENTE,PASIG,NCR,PH-00,1600,PHL,LFNCR01,PH-00-3,PASIG,Asia/Manila,14.47603,121.0523
LFL/TMS/PHL.GSK1200043815,GSK1200043815,ROBINSONS SUPERMARKET BANILAD,PASIG,NCR,PH-00,1600,PHL,LFNCR01,PH-00-3,PASIG,Asia/Manila,14.47603,121.0523
LFL/TMS/PHL.GSK1200043816,GSK1200043816,ROBINSONS SUPERMARKET CDO,PASIG,NCR,PH-00,1600,PHL,LFNCR01,PH-00-3,PASIG,Asia/Manila,14.47603,121.0523
LFL/TMS/PHL.GSK1200043817,GSK1200043817,ROBINSONS SUPERMARKET TALISAY,PASIG,NCR,PH-00,1600,PHL,LFNCR01,PH-00-3,PASIG,Asia/Manila,14.47603,121.0523
LFL/TMS/PHL.GSK1200043818,GSK1200043818,ROBINSONS SUPERMARKET GENSAN,PASIG,NCR,PH-00,1600,PHL,LFNCR01,PH-00-3,PASIG,Asia/Manila,14.47603,121.0523
LFL/TMS/PHL.GSK1200043820,GSK1200043820,ROBINSONS SUPERMARKET BACOLOD,PASIG,NCR,PH-00,1600,PHL,LFNCR01,PH-00-3,PASIG,Asia/Manila,14.47603,121.0523
LFL/TMS/PHL.GSK1200043819,GSK1200043819,ROBINSONS SUPERMARKET DUMAGUETE,PASIG,NCR,PH-00,1600,PHL,LFNCR01,PH-00-3,PASIG,Asia/Manila,14.47603,121.0523
LFL/TMS/PHL.GSK1200043821,GSK1200043821,ROBINSONS SUPERMART ILOILO,PASIG,NCR,PH-00,1600,PHL,LFNCR01,PH-00-3,PASIG,Asia/Manila,14.47603,121.0523
LFL/TMS/PHL.GSK1200043823,GSK1200043823,ROBINSONS SUPERMARKET DAVAO,PASIG,NCR,PH-00,1600,PHL,LFNCR01,PH-00-3,PASIG,Asia/Manila,14.47603,121.0523
LFL/TMS/PHL.GSK1200043824,GSK1200043824,ROBINSONS SUPERMARKET TACLOBAN,PASIG,NCR,PH-00,1600,PHL,LFNCR01,PH-00-3,PASIG,Asia/Manila,14.47603,121.0523
LFL/TMS/PHL.GSK1200043825,GSK1200043825,ROBINSONS SUPERMARKET CALOOCAN,PASIG,NCR,PH-00,1600,PHL,LFNCR01,PH-00-3,PASIG,Asia/Manila,14.47603,121.0523
LFL/TMS/PHL.GSK1200043826,GSK1200043826,ROBINSONS SUPERMARKET T  SORA,PASIG,NCR,PH-00,1600,PHL,LFNCR01,PH-00-3,PASIG,Asia/Manila,14.54899,121.08552
LFL/TMS/PHL.GSK1200043896,GSK1200043896,ROBINSONS SUPERMARKET  AVENIDA,PASIG,NCR,PH-00,1600,PHL,LFNCR01,PH-00-3,PASIG,Asia/Manila,14.54899,121.08552
LFL/TMS/PHL.GSK1200043897,GSK1200043897,ROBINSONS SUPERMARKET MACTAN,PASIG,NCR,PH-00,1600,PHL,LFNCR01,PH-00-3,PASIG,Asia/Manila,14.47603,121.0523
LFL/TMS/PHL.GSK1200063047,GSK1200063047,Southeastasia Retail Inc ? Balintawak,QUEZON CITY,NCR,PH-00,1100,PHL,LFNCR01,PH-00-6,QUEZON CITY,Asia/Manila,14.65824,121.0123
LFL/TMS/PHL.GSK1200068414,GSK1200068414,WALTERMART TALAVERA,TALAVERA,NUEVA ECIJA,PH-NUE,3114,PHL,LFREG03,PH-NUE,TALAVERA,Asia/Manila,15.57413,120.92061
LFL/TMS/PHL.GSK1200069093,GSK1200069093,SANFORD POZZORUBIO,POZORRUBIO,PANGASINAN,PH-PAN,2435,PHL,LFREG01,PH-PAN,POZORRUBIO,Asia/Manila,16.11124,120.5437
LFL/TMS/PHL.GSK1200068679,GSK1200068679,Wellcome Torre Sur,LAS PINAS,NCR,PH-00,1740,PHL,LFNCR01,PH-00-1,LAS PINAS,Asia/Manila,14.44853,120.98412
LFL/TMS/PHL.GSK1200068751,GSK1200068751,Waltermart Taytay,TAYTAY,RIZAL,PH-RIZ,1920,PHL,LFRIZ01,PH-RIZ-2,TAYTAY,Asia/Manila,14.47123,121.04008
LFL/TMS/PHL.GSK1200070611,GSK1200070611,Sanford Metro Hub Legaspi,LEGAZPI,ALBAY,PH-ALB,4500,PHL,LFREG05,PH-ALB,LEGAZPI,Asia/Manila,13.14352,123.74629
LFL/TMS/PHL.GSK1200069375,GSK1200069375,SANFORD LINGAYEN PANGASINAN,LINGAYEN,PANGASINAN,PH-PAN,2401,PHL,LFREG01,PH-PAN,LINGAYEN,Asia/Manila,16.01925,120.23115
LFL/TMS/PHL.GSK1200070612,GSK1200070612,Supervalue Cogeo Antipolo,ANTIPOLO,RIZAL,PH-RIZ,1870,PHL,LFRIZ01,PH-RIZ-2,ANTIPOLO,Asia/Manila,14.62465,121.13333
LFL/TMS/PHL.GSK1200070584,GSK1200070584,Puregold Extra Canlubang Asia,CALAMBA CITY,LAGUNA,PH-LAG,4027,PHL,LFREG4A,PH-LAG,CALAMBA CITY,Asia/Manila,14.20736,121.09834
LFL/TMS/PHL.GSK1200070583,GSK1200070583,PPCI - SAN PABLO HIGHWAY,SAN PABLO CITY,LAGUNA,PH-LAG,4000,PHL,LFREG4A,PH-LAG,SAN PABLO CITY,Asia/Manila,14.07176,121.31231
LFL/TMS/PHL.GSK1200070546,GSK1200070546,WELLCOME TALABA,BACOOR CITY,CAVITE,PH-CAV,4102,PHL,LFREG4A,PH-CAV,BACOOR CITY,Asia/Manila,14.47915,120.89695
LFL/TMS/PHL.GSK1200070548,GSK1200070548,Rustans Connecticut,SAN JUAN CITY,NCR,PH-00,1500,PHL,LFNCR01,PH-00-3,SAN JUAN CITY,Asia/Manila,14.60134,121.05412
LFL/TMS/PHL.GSK1200069923,GSK1200069923,PUREGOLD MEXICO PAMPANGA,MEXICO,PAMPANGA,PH-PAM,2021,PHL,LFREG03,PH-PAM,MEXICO,Asia/Manila,15.06459,120.72142
LFL/TMS/PHL.GSK1200070547,GSK1200070547,Shopwise Alvarez,LAS PINAS,NCR,PH-00,1740,PHL,LFNCR01,PH-00-1,LAS PINAS,Asia/Manila,14.429,121.00295
LFL/TMS/PHL.GSK1200070240,GSK1200070240,PUREGOLD VILLASIS,VILLASIS,PANGASINAN,PH-PAN,2427,PHL,LFREG01,PH-PAN,VILLASIS,Asia/Manila,15.90048,120.58917
LFL/TMS/PHL.GSK1200070200,GSK1200070200,PUREGOLD SAN RAFAEL,"RODRIGUEZ, MONTALBAN",RIZAL,PH-RIZ,1860,PHL,LFRIZ01,PH-RIZ-1,"RODRIGUEZ, MONTALBAN",Asia/Manila,14.73544,121.1541
LFL/TMS/PHL.GSK1200070245,GSK1200070245,PUREGOLD GAPAN,GAPAN,NUEVA ECIJA,PH-NUE,3105,PHL,LFREG03,PH-NUE,GAPAN,Asia/Manila,15.30677,120.94552
LFL/TMS/PHL.GSK1200070248,GSK1200070248,PUREGOLD JR TAYTAY,TAYTAY,RIZAL,PH-RIZ,1920,PHL,LFRIZ01,PH-RIZ-2,TAYTAY,Asia/Manila,14.56301,121.13358
LFL/TMS/PHL.GSK1200070249,GSK1200070249,PUREGOLD TAYTAY PALENGKE,TAYTAY,RIZAL,PH-RIZ,1920,PHL,LFRIZ01,PH-RIZ-2,TAYTAY,Asia/Manila,14.5595,121.13554
LFL/TMS/PHL.GSK1200044156,GSK1200044156,Puregold Price Club Mayombo Dagupan,DAGUPAN,PANGASINAN,PH-PAN,2400,PHL,LFREG01,PH-PAN,DAGUPAN,Asia/Manila,16.0387,120.34552
LFL/TMS/PHL.GSK1200044301,GSK1200044301,SANFORD MC DINALUPIHAN ?,DINALUPIHAN,BATAAN,PH-BAN,2110,PHL,LFREG03,PH-BAN,DINALUPIHAN,Asia/Manila,14.86759,120.46337
LFL/TMS/PHL.GSK1200043971,GSK1200043971,Super Shopping Market MKTMALL DSM,DASMARINAS,CAVITE,PH-CAV,4114,PHL,LFREG4A,PH-CAV,DASMARINAS,Asia/Manila,14.32821,120.95969
LFL/TMS/PHL.GSK1200059438,GSK1200059438,PUREGOLD DINALUPIHAN BATAAN,DINALUPIHAN,BATAAN,PH-BAN,2110,PHL,LFREG03,PH-BAN,DINALUPIHAN,Asia/Manila,14.86683,120.46516
LFL/TMS/PHL.GSK1200043864,GSK1200043864,WALTERMART SUPERMARKET INC GAPAN,GAPAN,NUEVA ECIJA,PH-NUE,3105,PHL,LFREG03,PH-NUE,GAPAN,Asia/Manila,15.30353,120.94566
LFL/TMS/PHL.GSK1200059450,GSK1200059450,PUREGOLD GAPAN NUEVA ECIJA,GAPAN,NUEVA ECIJA,PH-NUE,3105,PHL,LFREG03,PH-NUE,GAPAN,Asia/Manila,15.30677,120.94552
LFL/TMS/PHL.GSK1200044189,GSK1200044189,PUREGOLD FLORIDA BLANCA,FLORIDABLANCA,PAMPANGA,PH-PAM,2006,PHL,LFREG03,PH-PAM,FLORIDABLANCA,Asia/Manila,14.97216,120.52757
LFL/TMS/PHL.GSK1200044142,GSK1200044142,PUREGOLD PRICE CLUB GUAGUA PAMPANGA,GUAGUA,PAMPANGA,PH-PAM,2003,PHL,LFREG03,PH-PAM,GUAGUA,Asia/Manila,14.96242,120.63072
LFL/TMS/PHL.GSK1200043975,GSK1200043975,SANFORD MKTG CORP SMC IBA ZAMBALES,IBA,ZAMBALES,PH-ZMB,2201,PHL,LFREG03,PH-ZMB,IBA,Asia/Manila,15.32843,119.97081
LFL/TMS/PHL.GSK1200044291,GSK1200044291,SANFORD MARKETING CORP- GUAGUA,GUAGUA,PAMPANGA,PH-PAM,2003,PHL,LFREG03,PH-PAM,GUAGUA,Asia/Manila,14.9656,120.6322
LFL/TMS/PHL.GSK1200044203,GSK1200044203,PUREGOLD PRICE CLUB IBA ZAMBALES,IBA,ZAMBALES,PH-ZMB,2201,PHL,LFREG03,PH-ZMB,IBA,Asia/Manila,15.32818,119.97382
LFL/TMS/PHL.GSK1200059434,GSK1200059434,PUREGOLD ANABU II IMUS,IMUS CITY,CAVITE,PH-CAV,4103,PHL,LFREG4A,PH-CAV,IMUS CITY,Asia/Manila,14.3773,120.93976
LFL/TMS/PHL.GSK1200059971,GSK1200059971,PUREGOLD TANZANG LUMA IMUS,IMUS CITY,CAVITE,PH-CAV,4103,PHL,LFREG4A,PH-CAV,IMUS CITY,Asia/Manila,14.42192,120.9422
LFL/TMS/PHL.GSK1200043904,GSK1200043904,SANFORD MKTG CORP ILAGAN ISABELA,ILAGAN,ISABELA,PH-ISA,3300,PHL,LFREG02,PH-ISA,ILAGAN,Asia/Manila,17.0982,121.85498
LFL/TMS/PHL.GSK1200043988,GSK1200043988,SANFORD MKTG CORP SMC ILAGAN 2,ILAGAN,ISABELA,PH-ISA,3300,PHL,LFREG02,PH-ISA,ILAGAN,Asia/Manila,17.1291,121.86585
LFL/TMS/PHL.GSK1200044038,GSK1200044038,PUREGOLDPRICECLUB CENTRO ROXAS CITY,ROXAS,ISABELA,PH-ISA,3320,PHL,LFREG02,PH-ISA,ROXAS,Asia/Manila,17.12034,121.61616
LFL/TMS/PHL.GSK1200044154,GSK1200044154,PUREGOLDPRICECLUB SANTIAGO ISABELA,SANTIAGO CITY,ISABELA,PH-ISA,3311,PHL,LFREG02,PH-ISA,SANTIAGO CITY,Asia/Manila,16.68873,121.54627
LFL/TMS/PHL.GSK1200044041,GSK1200044041,PUREGOLD PRICE CLUB CAUAYAN ISABELA,CAUAYAN CITY,ISABELA,PH-ISA,3305,PHL,LFREG02,PH-ISA,CAUAYAN CITY,Asia/Manila,16.93674,121.77374
LFL/TMS/PHL.GSK1200043909,GSK1200043909,ROBINSONS SUPERMARKET  PAGADIAN,PASIG,NCR,PH-00,1600,PHL,LFNCR01,PH-00-3,PASIG,Asia/Manila,14.47603,121.0523
LFL/TMS/PHL.GSK1200043912,GSK1200043912,ROBINSONS SUPERMARKET GEN  TRIAS,PASIG,NCR,PH-00,1600,PHL,LFNCR01,PH-00-3,PASIG,Asia/Manila,14.47603,121.0523
LFL/TMS/PHL.GSK1200043931,GSK1200043931,ROBINSONS SUPERMARKET 168,PASIG,NCR,PH-00,1600,PHL,LFNCR01,PH-00-3,PASIG,Asia/Manila,14.54899,121.08552
LFL/TMS/PHL.GSK1200043933,GSK1200043933,ROBINSONS SUPERMARKET  ILAGAN,PASIG,NCR,PH-00,1600,PHL,LFNCR01,PH-00-3,PASIG,Asia/Manila,14.47603,121.0523
LFL/TMS/PHL.GSK1200043939,GSK1200043939,ROBINSONS SUPERMARKET ABREEZA DAVAO,PASIG,NCR,PH-00,1600,PHL,LFNCR01,PH-00-3,PASIG,Asia/Manila,14.47603,121.0523
LFL/TMS/PHL.GSK1200043965,GSK1200043965,ROBINSONS SUPERMARKET NUVALI,PASIG,NCR,PH-00,1600,PHL,LFNCR01,PH-00-3,PASIG,Asia/Manila,14.47603,121.0523
LFL/TMS/PHL.GSK1200043964,GSK1200043964,ROBINSONS SUPERMARKET CALAPAN,PASIG,NCR,PH-00,1600,PHL,LFNCR01,PH-00-3,PASIG,Asia/Manila,14.47603,121.0523
LFL/TMS/PHL.GSK1200044043,GSK1200044043,ROBINSONS VENTURES INC  DC TAGUIG,PASIG,NCR,PH-00,1600,PHL,LFNCR01,PH-00-3,PASIG,Asia/Manila,14.54899,121.08552
LFL/TMS/PHL.GSK1200044044,GSK1200044044,ROBINSONS SUPERMARKET MERCEDES,PASIG,NCR,PH-00,1600,PHL,LFNCR01,PH-00-3,PASIG,Asia/Manila,14.47603,121.0523
LFL/TMS/PHL.GSK1200044045,GSK1200044045,ROBINSONS SUPERMARKET CANLUBANG,PASIG,NCR,PH-00,1600,PHL,LFNCR01,PH-00-3,PASIG,Asia/Manila,14.47603,121.0523
LFL/TMS/PHL.GSK1200044295,GSK1200044295,ROBINSONS SUPERMARKET ? FRIENDSHIP,PASIG,NCR,PH-00,1600,PHL,LFNCR01,PH-00-3,PASIG,Asia/Manila,14.54899,121.08552
LFL/TMS/PHL.GSK1200044845,GSK1200044845,ROBINSONS SUPERMARKET IBA,PASIG,NCR,PH-00,1600,PHL,LFNCR01,PH-00-3,PASIG,Asia/Manila,14.47603,121.0523
LFL/TMS/PHL.GSK1200044846,GSK1200044846,ROBINSONS SUPERMARKET SALAWAG,PASIG,NCR,PH-00,1600,PHL,LFNCR01,PH-00-3,PASIG,Asia/Manila,14.47603,121.0523
LFL/TMS/PHL.GSK1200061726,GSK1200061726,PHILIPPINE SEVEN CORPORATION - PASIG,PASIG,NCR,PH-00,1600,PHL,LFNCR01,PH-00-3,PASIG,Asia/Manila,14.58083,121.08127
LFL/TMS/PHL.GSK1200044153,GSK1200044153,SANFORD MARKETING CORP PILI CAMSUR,PILI,CAMARINES SUR,PH-CAS,4418,PHL,LFREG05,PH-CAS,PILI,Asia/Manila,13.55294,123.28573
LFL/TMS/PHL.GSK1200044233,GSK1200044233,PUREGOLD PRICE CLUB PORAC,PORAC,PAMPANGA,PH-PAM,2008,PHL,LFREG03,PH-PAM,PORAC,Asia/Manila,15.07132,120.54326
LFL/TMS/PHL.GSK1200043940,GSK1200043940,Puregold Price Club Candelaria,CANDELARIA,QUEZON,PH-QUE,4323,PHL,LFREG4A,PH-QUE,CANDELARIA,Asia/Manila,13.93094,121.40319
LFL/TMS/PHL.GSK1100290485,GSK1100290485,MERCURY DRUG CORPORATION,QUEZON CITY,NCR,PH-00,1100,PHL,LFNCR01,PH-00-6,QUEZON CITY,Asia/Manila,14.611,121.07695
LFL/TMS/PHL.GSK1100290510,GSK1100290510,WALTERMART SUPERMARKET INC,QUEZON CITY,NCR,PH-00,1100,PHL,LFNCR01,PH-00-6,QUEZON CITY,Asia/Manila,14.54899,121.08552
LFL/TMS/PHL.GSK1200070251,GSK1200070251,PUREGOLD EXTRA PHILAM,QUEZON CITY,NCR,PH-00,1100,PHL,LFNCR01,PH-00-6,QUEZON CITY,Asia/Manila,14.64982,121.03028
LFL/TMS/PHL.GSK1200070246,GSK1200070246,Puregold Extra Tagaytay,TAGAYTAY CITY,CAVITE,PH-CAV,4120,PHL,LFREG4A,PH-CAV,TAGAYTAY CITY,Asia/Manila,14.11563,120.96208
LFL/TMS/PHL.GSK1200070250,GSK1200070250,PUREGOLD EXTRA PANORAMA,MARIKINA,NCR,PH-RIZ,1800,PHL,LFRIZ01,PH-RIZ-1,MARIKINA,Asia/Manila,14.63862,121.12577
LFL/TMS/PHL.GSK1200070228,GSK1200070228,PUREGOLD BALIUAG DRT HI WAY 00860,BALIUAG,BULACAN,PH-BUL,3006,PHL,LFREG03,PH-BUL,BALIUAG,Asia/Manila,14.94999,120.88339
LFL/TMS/PHL.GSK1200070252,GSK1200070252,PPCI CONCEPCION,MARIKINA,NCR,PH-RIZ,1800,PHL,LFRIZ01,PH-RIZ-1,MARIKINA,Asia/Manila,14.65042,121.10557
LFL/TMS/PHL.GSK1200070227,GSK1200070227,PUREGOLD JR CONCEPCION,MARIKINA,NCR,PH-RIZ,1800,PHL,LFRIZ01,PH-RIZ-1,MARIKINA,Asia/Manila,14.65652,120.98279
LFL/TMS/PHL.GSK1200070229,GSK1200070229,PUREGOLD CROSSING 00862,CABANATUAN,NUEVA ECIJA,PH-NUE,3100,PHL,LFREG03,PH-NUE,CABANATUAN,Asia/Manila,15.49354,120.97601
LFL/TMS/PHL.GSK1200070260,GSK1200070260,PUREGOLD EXTRA GUITNANG BAYAN,SAN MATEO,RIZAL,PH-RIZ,1850,PHL,LFRIZ01,PH-RIZ-1,SAN MATEO,Asia/Manila,14.6952,121.11824
LFL/TMS/PHL.GSK1200070261,GSK1200070261,PUREGOLD DASMARI?AS,DASMARINAS,CAVITE,PH-CAV,4114,PHL,LFREG4A,PH-CAV,DASMARINAS,Asia/Manila,14.32693,120.93991
LFL/TMS/PHL.GSK1200070270,GSK1200070270,PUREGOLD JR PAROLA,CAINTA,RIZAL,PH-RIZ,1900,PHL,LFRIZ01,PH-RIZ-2,CAINTA,Asia/Manila,14.59626,121.08927
LFL/TMS/PHL.GSK1200061906,GSK1200061906,PUREGOLD STA CRUZ LAGUNA 00876,SANTA CRUZ,LAGUNA,PH-LAG,4009,PHL,LFREG4A,PH-LAG,SANTA CRUZ,Asia/Manila,14.28567,121.41483
LFL/TMS/PHL.GSK1200061894,GSK1200061894,PUREGOLD PAG ASA BINANGONAN 00878,BINANGONAN,RIZAL,PH-RIZ,1940,PHL,LFRIZ01,PH-RIZ-2,BINANGONAN,Asia/Manila,14.5196,121.15764
LFL/TMS/PHL.GSK1200068247,GSK1200068247,PUREGOLD BUCANDALA,IMUS CITY,CAVITE,PH-CAV,4103,PHL,LFREG4A,PH-CAV,IMUS CITY,Asia/Manila,14.40591,120.92579
LFL/TMS/PHL.GSK1200068038,GSK1200068038,PUREGOLD SUMULONG,CAINTA,RIZAL,PH-RIZ,1900,PHL,LFRIZ01,PH-RIZ-2,CAINTA,Asia/Manila,14.63358,121.10915
LFL/TMS/PHL.GSK1200068602,GSK1200068602,WELLCOME MANHATTAN CUBAO,QUEZON CITY,NCR,PH-00,1100,PHL,LFNCR01,PH-00-6,QUEZON CITY,Asia/Manila,14.62012,121.05172
LFL/TMS/PHL.GSK1200062978,GSK1200062978,Southeastasia Retail Inc ? Paco,MANILA,NCR,PH-00,1000,PHL,LFNCR01,PH-00-4,MANILA,Asia/Manila,14.59124,120.99944
LFL/TMS/PHL.GSK1200070417,GSK1200070417,Sanford Aringay la union,ARINGAY,LA UNION,PH-LUN,2503,PHL,LFREG01,PH-LUN,ARINGAY,Asia/Manila,16.39716,120.35591
LFL/TMS/PHL.GSK1200069426,GSK1200069426,SANFORD CABAGAN ISABELA,CABAGAN,ISABELA,PH-ISA,3328,PHL,LFREG02,PH-ISA,CABAGAN,Asia/Manila,17.42694,121.7743
LFL/TMS/PHL.GSK1200069427,GSK1200069427,Sanford San Andres,MANILA,NCR,PH-00,1000,PHL,LFNCR01,PH-00-4,MANILA,Asia/Manila,14.56951,120.98939
LFL/TMS/PHL.GSK1200047635,GSK1200047635,SANFORD ECHAGUE ISA,ECHAGUE,ISABELA,PH-ISA,3309,PHL,LFREG02,PH-ISA,ECHAGUE,Asia/Manila,16.7041,121.69503
LFL/TMS/PHL.GSK1200044277,GSK1200044277,SANFORD MARKETING CORP  TUMAUINI,TUMAUINI,ISABELA,PH-ISA,3325,PHL,LFREG02,PH-ISA,TUMAUINI,Asia/Manila,17.27636,121.87949
LFL/TMS/PHL.GSK1200060734,GSK1200060734,SANFORD MKTG. CORP. TUMAUINI 2,TUMAUINI,ISABELA,PH-ISA,3325,PHL,LFREG02,PH-ISA,TUMAUINI,Asia/Manila,17.28061,121.87761
LFL/TMS/PHL.GSK1200060799,GSK1200060799,PUREGOLD TUMAUINI,TUMAUINI,ISABELA,PH-ISA,3325,PHL,LFREG02,PH-ISA,TUMAUINI,Asia/Manila,17.27693,121.80924
LFL/TMS/PHL.GSK1200061766,GSK1200061766,SANFORD MKTG CORP CAUAYAN,CAUAYAN CITY,ISABELA,PH-ISA,3305,PHL,LFREG02,PH-ISA,CAUAYAN CITY,Asia/Manila,16.93978,121.74727
LFL/TMS/PHL.GSK1200059378,GSK1200059378,Savemore Market La Trinidad,LA TRINIDAD,BENGUET,PH-BEN,2601,PHL,LFREG01,PH-BEN,LA TRINIDAD,Asia/Manila,16.44457,120.59204
LFL/TMS/PHL.GSK1200044002,GSK1200044002,Puregold Price Club La Trinidad,LA TRINIDAD,BENGUET,PH-BEN,2601,PHL,LFREG01,PH-BEN,LA TRINIDAD,Asia/Manila,16.4446,120.59185
LFL/TMS/PHL.GSK1200043595,GSK1200043595,Granville SC Mgt Baguio,LA TRINIDAD,BENGUET,PH-BEN,2601,PHL,LFREG01,PH-BEN,LA TRINIDAD,Asia/Manila,16.45093,120.57664
LFL/TMS/PHL.GSK1200043992,GSK1200043992,SANFORD MARKETING CORP SMC LAOAG 1,LAOAG,ILOCOS NORTE,PH-ILN,2900,PHL,LFREG01,PH-ILN,LAOAG,Asia/Manila,18.19518,120.59505
LFL/TMS/PHL.GSK1200044072,GSK1200044072,Super ShoppingMarket HroesHll Laoag,LAOAG,ILOCOS NORTE,PH-ILN,2900,PHL,LFREG01,PH-ILN,LAOAG,Asia/Manila,18.19521,120.59339
LFL/TMS/PHL.GSK1200044103,GSK1200044103,PUREGOLD PRICE CLUB LAOAG,LAOAG,ILOCOS NORTE,PH-ILN,2900,PHL,LFREG01,PH-ILN,LAOAG,Asia/Manila,18.19479,120.5946
LFL/TMS/PHL.GSK1200043617,GSK1200043617,Super Shopping Market Las Pinas,LAS PINAS,NCR,PH-00,1740,PHL,LFNCR01,PH-00-1,LAS PINAS,Asia/Manila,14.44911,120.98054
LFL/TMS/PHL.GSK1200043691,GSK1200043691,Puregold Price Club Zapote,LAS PINAS,NCR,PH-00,1740,PHL,LFNCR01,PH-00-1,LAS PINAS,Asia/Manila,14.43873,121.0049
LFL/TMS/PHL.GSK1200043675,GSK1200043675,Supervalue Inc Southmall,LAS PINAS,NCR,PH-00,1740,PHL,LFNCR01,PH-00-1,LAS PINAS,Asia/Manila,14.43214,121.01085
LFL/TMS/PHL.GSK1200043712,GSK1200043712,Puregold Price Club Inc Las Pinas,LAS PINAS,NCR,PH-00,1740,PHL,LFNCR01,PH-00-1,LAS PINAS,Asia/Manila,14.46388,120.98889
LFL/TMS/PHL.GSK1200043699,GSK1200043699,Puregold Price Club Zapote Annex,LAS PINAS,NCR,PH-00,1740,PHL,LFNCR01,PH-00-1,LAS PINAS,Asia/Manila,14.45326,120.97575
LFL/TMS/PHL.GSK1200043733,GSK1200043733,PUREGOLD PRICE CLUB  INC  ZAPOTE,LAS PINAS,NCR,PH-00,1740,PHL,LFNCR01,PH-00-1,LAS PINAS,Asia/Manila,14.44921,120.97853
LFL/TMS/PHL.GSK1200043898,GSK1200043898,Sanford Marketing Corp Zapote,LAS PINAS,NCR,PH-00,1740,PHL,LFNCR01,PH-00-1,LAS PINAS,Asia/Manila,14.42534,120.94319
LFL/TMS/PHL.GSK1200043925,GSK1200043925,SUPERVALUE  INC   SOUTHMALL EXT,LAS PINAS,NCR,PH-00,1740,PHL,LFNCR01,PH-00-1,LAS PINAS,Asia/Manila,14.43214,121.01085
LFL/TMS/PHL.GSK1100290511,GSK1100290511,WALTERMART VENTURES INC,QUEZON CITY,NCR,PH-00,1100,PHL,LFNCR01,PH-00-6,QUEZON CITY,Asia/Manila,14.54899,121.08552
LFL/TMS/PHL.GSK1200043611,GSK1200043611,Super Shopping Market North Edsa,QUEZON CITY,NCR,PH-00,1100,PHL,LFNCR01,PH-00-6,QUEZON CITY,Asia/Manila,14.65637,121.03207
LFL/TMS/PHL.GSK1200043620,GSK1200043620,Super Shopping Market Novaliches,QUEZON CITY,NCR,PH-00,1100,PHL,LFNCR01,PH-00-6,QUEZON CITY,Asia/Manila,14.70769,121.03845
LFL/TMS/PHL.GSK1200043621,GSK1200043621,Super Shopping Market Fairview,QUEZON CITY,NCR,PH-00,1100,PHL,LFNCR01,PH-00-6,QUEZON CITY,Asia/Manila,14.73404,121.05614
LFL/TMS/PHL.GSK1200043624,GSK1200043624,Super Shopping Market Eton,QUEZON CITY,NCR,PH-00,1100,PHL,LFNCR01,PH-00-6,QUEZON CITY,Asia/Manila,14.64346,121.03914
LFL/TMS/PHL.GSK1200043626,GSK1200043626,Sanford Marketing Corp Mezza,QUEZON CITY,NCR,PH-00,1100,PHL,LFNCR01,PH-00-6,QUEZON CITY,Asia/Manila,14.6064,121.01897
LFL/TMS/PHL.GSK1200043628,GSK1200043628,Sanford Marketing Corp P Tuazon,QUEZON CITY,NCR,PH-00,1100,PHL,LFNCR01,PH-00-6,QUEZON CITY,Asia/Manila,14.62277,121.06921
LFL/TMS/PHL.GSK1200043629,GSK1200043629,Sanford Marketing Corp Del Monte,QUEZON CITY,NCR,PH-00,1100,PHL,LFNCR01,PH-00-6,QUEZON CITY,Asia/Manila,14.63889,121.00755
LFL/TMS/PHL.GSK1200043633,GSK1200043633,Sanford Mktg Corp Broadway,QUEZON CITY,NCR,PH-00,1100,PHL,LFNCR01,PH-00-6,QUEZON CITY,Asia/Manila,14.61169,121.03269
LFL/TMS/PHL.GSK1200043634,GSK1200043634,Sanford Mktg Corp Visayas Ave,QUEZON CITY,NCR,PH-00,1100,PHL,LFNCR01,PH-00-6,QUEZON CITY,Asia/Manila,14.67578,121.0442
LFL/TMS/PHL.GSK1200043635,GSK1200043635,Sanford Marketing Corp Anonas,QUEZON CITY,NCR,PH-00,1100,PHL,LFNCR01,PH-00-6,QUEZON CITY,Asia/Manila,14.63593,121.05876
LFL/TMS/PHL.GSK1200043645,GSK1200043645,SANFORD MKTG CORP NOVALICHES,QUEZON CITY NORTH,NCR,PH-00,1100,PHL,LFNCR01,PH-00-6,QUEZON CITY NORTH,Asia/Manila,14.72153,121.03666
LFL/TMS/PHL.GSK1200043644,GSK1200043644,SANFORD MKTG CORP  NORTH EDSA 2,QUEZON CITY,NCR,PH-00,1100,PHL,LFNCR01,PH-00-6,QUEZON CITY,Asia/Manila,14.65633,121.03104
LFL/TMS/PHL.GSK1200043653,GSK1200043653,Sanford Mktg Corp Nepa Q Mart,QUEZON CITY,NCR,PH-00,1100,PHL,LFNCR01,PH-00-6,QUEZON CITY,Asia/Manila,14.62913,121.04709
LFL/TMS/PHL.GSK1200043656,GSK1200043656,SANFORD MKTG CORP NORTH EDSA WEST,QUEZON CITY,NCR,PH-00,1100,PHL,LFNCR01,PH-00-6,QUEZON CITY,Asia/Manila,14.65633,121.03104
LFL/TMS/PHL.GSK1200043669,GSK1200043669,SUPERVALUE INC FAIRVIEW,QUEZON CITY NORTH,NCR,PH-00,1100,PHL,LFNCR01,PH-00-6,QUEZON CITY NORTH,Asia/Manila,14.73398,121.05974
LFL/TMS/PHL.GSK1200043677,GSK1200043677,Supervalue Inc North Edsa,QUEZON CITY,NCR,PH-00,1100,PHL,LFNCR01,PH-00-6,QUEZON CITY,Asia/Manila,14.65703,121.02918
LFL/TMS/PHL.GSK1200043676,GSK1200043676,Supervalue Inc Sta Mesa,QUEZON CITY,NCR,PH-00,1100,PHL,LFNCR01,PH-00-6,QUEZON CITY,Asia/Manila,14.6046,121.01897
LFL/TMS/PHL.GSK1200043678,GSK1200043678,Supervalue Inc Cubao,QUEZON CITY,NCR,PH-00,1100,PHL,LFNCR01,PH-00-6,QUEZON CITY,Asia/Manila,14.61907,121.05561
LFL/TMS/PHL.GSK1200068211,GSK1200068211,SANFORD JAEN,JAEN,NUEVA ECIJA,PH-NUE,3109,PHL,LFREG03,PH-NUE,JAEN,Asia/Manila,15.3391,120.91193
LFL/TMS/PHL.GSK1200061488,GSK1200061488,PUREGOLD BATANGAS NEW MARKET 00875,BATANGAS CITY,BATANGAS,PH-BTG,4200,PHL,LFREG4A,PH-BTG,BATANGAS CITY,Asia/Manila,13.74883,121.0572
LFL/TMS/PHL.GSK1200068648,GSK1200068648,WELLCOME NOVALICHES,QUEZON CITY NORTH,NCR,PH-00,1100,PHL,LFNCR01,PH-00-6,QUEZON CITY NORTH,Asia/Manila,14.73314,121.05099
LFL/TMS/PHL.GSK1200068647,GSK1200068647,SANFORD EPZA,GENERAL TRIAS CITY,CAVITE,PH-CAV,4107,PHL,LFREG4A,PH-CAV,GENERAL TRIAS CITY,Asia/Manila,14.42267,120.88717
LFL/TMS/PHL.GSK1200068415,GSK1200068415,Supervalue Ortigas East,CAINTA,RIZAL,PH-RIZ,1900,PHL,LFRIZ01,PH-RIZ-2,CAINTA,Asia/Manila,14.58697,121.10466
LFL/TMS/PHL.GSK1200068646,GSK1200068646,SANFORD ALAPAN,IMUS CITY,CAVITE,PH-CAV,4103,PHL,LFREG4A,PH-CAV,IMUS CITY,Asia/Manila,14.40441,120.906
LFL/TMS/PHL.GSK1200068446,GSK1200068446,KAREILA ILOILO,CABUYAO CITY,LAGUNA,PH-LAG,4025,PHL,LFREG4A,PH-LAG,CABUYAO CITY,Asia/Manila,14.23324,121.10079
LFL/TMS/PHL.GSK1200068212,GSK1200068212,Sanford One Mall,VALENZUELA,NCR,PH-00,1441,PHL,LFNCR01,PH-00-5,VALENZUELA,Asia/Manila,14.68776,121.00052
LFL/TMS/PHL.GSK1200067763,GSK1200067763,Ultramega - Tunasan,MUNTINLUPA,NCR,PH-00,1770,PHL,LFNCR01,PH-00-1,MUNTINLUPA,Asia/Manila,14.38375,121.04406
LFL/TMS/PHL.GSK1200070880,GSK1200070880,Waltermart Balayan,BALAYAN,BATANGAS,PH-BTG,4213,PHL,LFREG4A,PH-BTG,BALAYAN,Asia/Manila,13.94939,120.72891
LFL/TMS/PHL.GSK1200044003,GSK1200044003,Puregold Price Club Zapote Arcade,LAS PINAS,NCR,PH-00,1740,PHL,LFNCR01,PH-00-1,LAS PINAS,Asia/Manila,14.465,120.96763
LFL/TMS/PHL.GSK1200044025,GSK1200044025,Super Shopping Mrket Las Pinas REAL,LAS PINAS,NCR,PH-00,1740,PHL,LFNCR01,PH-00-1,LAS PINAS,Asia/Manila,14.44948,120.98141
LFL/TMS/PHL.GSK1200044060,GSK1200044060,PuregoldPriceClub JAguilar LasPinas,LAS PINAS,NCR,PH-00,1740,PHL,LFNCR01,PH-00-1,LAS PINAS,Asia/Manila,14.46388,120.98889
LFL/TMS/PHL.GSK1200044124,GSK1200044124,Rustans SupercntrInc Pontevia,LAS PINAS,NCR,PH-00,1740,PHL,LFNCR01,PH-00-1,LAS PINAS,Asia/Manila,14.37617,121.01225
LFL/TMS/PHL.GSK1200044237,GSK1200044237,Puregold Price Club Pulang Lupa,LAS PINAS,NCR,PH-00,1740,PHL,LFNCR01,PH-00-1,LAS PINAS,Asia/Manila,14.46327,120.98911
LFL/TMS/PHL.GSK1200046845,GSK1200046845,Sanford M. Alvarez Las Pinas,LAS PINAS,NCR,PH-00,1740,PHL,LFNCR01,PH-00-1,LAS PINAS,Asia/Manila,14.42822,121.00308
LFL/TMS/PHL.GSK1100290523,GSK1100290523,SNACK EXCHANGE MNILASOUTHRNASSOMAIN,LAS PINAS,NCR,PH-00,1740,PHL,LFNCR01,PH-00-1,LAS PINAS,Asia/Manila,14.43214,121.01085
LFL/TMS/PHL.GSK1200044177,GSK1200044177,SNACK EXCHANGE MNILASOUTHRNSOUTHMLL,LAS PINAS,NCR,PH-00,1740,PHL,LFNCR01,PH-00-1,LAS PINAS,Asia/Manila,14.43214,121.01085
LFL/TMS/PHL.GSK1100290460,GSK1100290460,Maranatha Sales Distributor,LEGAZPI,ALBAY,PH-ALB,4500,PHL,LFREG05,PH-ALB,LEGAZPI,Asia/Manila,13.14749,123.74587
LFL/TMS/PHL.GSK1200043983,GSK1200043983,Puregold Legaspi,LEGAZPI,ALBAY,PH-ALB,4500,PHL,LFREG05,PH-ALB,LEGAZPI,Asia/Manila,13.14329,123.75822
LFL/TMS/PHL.GSK1200043659,GSK1200043659,Sanford Marketing Corp Legazpi,LEGAZPI,ALBAY,PH-ALB,4500,PHL,LFREG05,PH-ALB,LEGAZPI,Asia/Manila,13.14463,123.74506
LFL/TMS/PHL.GSK1200044008,GSK1200044008,Sanford Mktg Corp Legaspi Silver,LEGAZPI,ALBAY,PH-ALB,4500,PHL,LFREG05,PH-ALB,LEGAZPI,Asia/Manila,13.14906,123.75276
LFL/TMS/PHL.GSK1200044022,GSK1200044022,Sanford Marketing Corp SMC Sorsogon,SORSOGON CITY,SORSOGON,PH-SOR,4700,PHL,LFREG05,PH-SOR,SORSOGON CITY,Asia/Manila,12.97186,124.00681
LFL/TMS/PHL.GSK1200049098,GSK1200049098,Sanford Sorsogon 2,SORSOGON CITY,SORSOGON,PH-SOR,4700,PHL,LFREG05,PH-SOR,SORSOGON CITY,Asia/Manila,12.96939,124.00475
LFL/TMS/PHL.GSK1200043665,GSK1200043665,SUPERVALUE INC LIPA CITY,LIPA,BATANGAS,PH-BTG,4217,PHL,LFREG4A,PH-BTG,LIPA,Asia/Manila,13.95429,121.16347
LFL/TMS/PHL.GSK1100290521,GSK1100290521,SNACK EXCHANGE MERDIENBUSLEADERMAIN,LIPA,BATANGAS,PH-BTG,4217,PHL,LFREG4A,PH-BTG,LIPA,Asia/Manila,13.95429,121.16347
LFL/TMS/PHL.GSK1200043871,GSK1200043871,WALTERMART VENTURES INC  LOS BANOS,LOS BANOS,LAGUNA,PH-LAG,4030,PHL,LFREG4A,PH-LAG,LOS BANOS,Asia/Manila,14.47603,121.0523
LFL/TMS/PHL.GSK1200044017,GSK1200044017,Waltermart Smkt Inc Los Banos,LOS BANOS,LAGUNA,PH-LAG,4030,PHL,LFREG4A,PH-LAG,LOS BANOS,Asia/Manila,14.17989,121.23913
LFL/TMS/PHL.GSK1200044067,GSK1200044067,Sanford Mktg Corp SMCo LB Centro,LOS BANOS,LAGUNA,PH-LAG,4030,PHL,LFREG4A,PH-LAG,LOS BANOS,Asia/Manila,14.17067,121.24402
LFL/TMS/PHL.GSK1200043702,GSK1200043702,Puregold Price Club Quezon Avenue,QUEZON CITY,NCR,PH-00,1100,PHL,LFNCR01,PH-00-6,QUEZON CITY,Asia/Manila,14.64276,121.0339
LFL/TMS/PHL.GSK1200043706,GSK1200043706,Puregold Price Club Inc Common,QUEZON CITY,NCR,PH-00,1100,PHL,LFNCR01,PH-00-6,QUEZON CITY,Asia/Manila,14.66663,121.07145
LFL/TMS/PHL.GSK1200043709,GSK1200043709,Puregold Price Club E Rod,QUEZON CITY,NCR,PH-00,1100,PHL,LFNCR01,PH-00-6,QUEZON CITY,Asia/Manila,14.61714,121.01435
LFL/TMS/PHL.GSK1200043707,GSK1200043707,PUREGOLD PRICE CLUB CUBAO,QUEZON CITY,NCR,PH-00,1100,PHL,LFNCR01,PH-00-6,QUEZON CITY,Asia/Manila,14.62127,121.05152
LFL/TMS/PHL.GSK1200043735,GSK1200043735,PUREGOLD NOVALICHES,QUEZON CITY NORTH,NCR,PH-00,1100,PHL,LFNCR01,PH-00-6,QUEZON CITY NORTH,Asia/Manila,14.72452,121.04171
LFL/TMS/PHL.GSK1200043741,GSK1200043741,KAREILA MGT CORP CONGRESSIONAL,QUEZON CITY,NCR,PH-00,1100,PHL,LFNCR01,PH-00-6,QUEZON CITY,Asia/Manila,14.65954,121.01959
LFL/TMS/PHL.GSK1200043744,GSK1200043744,CITY SUPER INC SUPERMARKET,QUEZON CITY,NCR,PH-00,1100,PHL,LFNCR01,PH-00-6,QUEZON CITY,Asia/Manila,14.65029,121.03417
LFL/TMS/PHL.GSK1200043745,GSK1200043745,CITY SUPER INC DEPARTMENT STORE,QUEZON CITY,NCR,PH-00,1100,PHL,LFNCR01,PH-00-6,QUEZON CITY,Asia/Manila,14.65029,121.03417
LFL/TMS/PHL.GSK1200043830,GSK1200043830,RUSTANS SUPERCNTRINC SHOPWISE LIBIS,QUEZON CITY,NCR,PH-00,1100,PHL,LFNCR01,PH-00-6,QUEZON CITY,Asia/Manila,14.60383,121.08008
LFL/TMS/PHL.GSK1200043827,GSK1200043827,Rustans SupercntrInc Shopwise Cubao,QUEZON CITY,NCR,PH-00,1100,PHL,LFNCR01,PH-00-6,QUEZON CITY,Asia/Manila,14.62289,121.05261
LFL/TMS/PHL.GSK1200043834,GSK1200043834,Commonwealth Supercenter Coml Corp,QUEZON CITY,NCR,PH-00,1100,PHL,LFNCR01,PH-00-6,QUEZON CITY,Asia/Manila,14.70614,121.06908
LFL/TMS/PHL.GSK1200043836,GSK1200043836,Rustans SupercntrGateway,QUEZON CITY,NCR,PH-00,1100,PHL,LFNCR01,PH-00-6,QUEZON CITY,Asia/Manila,14.62212,121.05353
LFL/TMS/PHL.GSK1200043835,GSK1200043835,Rustans Superstore Corinthian Hills,QUEZON CITY,NCR,PH-00,1100,PHL,LFNCR01,PH-00-6,QUEZON CITY,Asia/Manila,14.5948,121.06252
LFL/TMS/PHL.GSK1200043842,GSK1200043842,Rustans SupercntrKatipunan,QUEZON CITY,NCR,PH-00,1100,PHL,LFNCR01,PH-00-6,QUEZON CITY,Asia/Manila,14.64313,121.07415
LFL/TMS/PHL.GSK1200043850,GSK1200043850,RUSTANS SUPERCNTRFAIRVIEW,QUEZON CITY NORTH,NCR,PH-00,1100,PHL,LFNCR01,PH-00-6,QUEZON CITY NORTH,Asia/Manila,14.7063,121.06912
LFL/TMS/PHL.GSK1200043852,GSK1200043852,RUSTANS SUPERCNTRZABARTE,QUEZON CITY NORTH,NCR,PH-00,1100,PHL,LFNCR01,PH-00-6,QUEZON CITY NORTH,Asia/Manila,14.66162,120.98409
LFL/TMS/PHL.GSK1200043853,GSK1200043853,Rustans SupercntrFarmers,QUEZON CITY,NCR,PH-00,1100,PHL,LFNCR01,PH-00-6,QUEZON CITY,Asia/Manila,14.62019,121.0572
LFL/TMS/PHL.GSKWALTER,GSKWALTER,GSK WALTERMART,PARANAQUE,NCR,PH-00,1700,PHL,LFNCR01,PH-00-1,PARANAQUE,Asia/Manila,14.47123,121.04008
LFL/TMS/PHL.GSK1200043856,GSK1200043856,Puregold Price Club Mindanao Ave,QUEZON CITY,NCR,PH-00,1100,PHL,LFNCR01,PH-00-6,QUEZON CITY,Asia/Manila,14.66657,121.03448
LFL/TMS/PHL.GSKROB,GSKROB,GSK ROBINSONS,TAGUIG,NCR,PH-00,1630,PHL,LFNCR01,PH-00-2,TAGUIG,Asia/Manila,14.47603,121.0523
LFL/TMS/PHL.GSKROBSMKT,GSKROBSMKT,GSK ROBINSONS SMKT,PASIG,NCR,PH-00,1600,PHL,LFNCR01,PH-00-3,PASIG,Asia/Manila,14.54899,121.08552
LFL/TMS/PHL.PH22,PH22,GSK GMA,PARANAQUE,NCR,NULL,1700,PHL,LFNCR03,GMA,NULL,Asia/Manila,14.47161,121.04411
LFL/TMS/PHL.GSK1200044083,GSK1200044083,PuregoldPriceClub Los Banos Laguna,LOS BANOS,LAGUNA,PH-LAG,4030,PHL,LFREG4A,PH-LAG,LOS BANOS,Asia/Manila,14.17902,121.23953
LFL/TMS/PHL.GSK1200044244,GSK1200044244,PUREGOLD PRICE CLUB INC LUBAO,LUBAO,PAMPANGA,PH-PAM,2005,PHL,LFREG03,PH-PAM,LUBAO,Asia/Manila,14.90738,120.55727
LFL/TMS/PHL.GSK1200043670,GSK1200043670,SUPERVALUE INC LUCENA,LUCENA CITY,QUEZON,PH-QUE,4301,PHL,LFREG4A,PH-QUE,LUCENA CITY,Asia/Manila,13.94071,121.6245
LFL/TMS/PHL.GSK1200044274,GSK1200044274,Sanford Mktg Corp CM Recto Lucena,LUCENA CITY,QUEZON,PH-QUE,4301,PHL,LFREG4A,PH-QUE,LUCENA CITY,Asia/Manila,13.9344,121.6156
LFL/TMS/PHL.GSK1200043708,GSK1200043708,PUREGOLD PRICE CLUB INC DAU,MABALACAT,PAMPANGA,PH-PAM,2010,PHL,LFREG03,PH-PAM,MABALACAT,Asia/Manila,15.17437,120.58889
LFL/TMS/PHL.GSK1200043908,GSK1200043908,SUPER SHOPPING MARKET MBLACT PMPNGA,MABALACAT,PAMPANGA,PH-PAM,2010,PHL,LFREG03,PH-PAM,MABALACAT,Asia/Manila,15.1912,120.59155
LFL/TMS/PHL.GSK1200044033,GSK1200044033,PUREGOLDPRICECLUB MAGALANG PAMPANGA,MAGALANG,PAMPANGA,PH-PAM,2011,PHL,LFREG03,PH-PAM,MAGALANG,Asia/Manila,15.21191,120.65585
LFL/TMS/PHL.GSK1200043618,GSK1200043618,Super Shopping Market Makati,MAKATI,NCR,PH-00,1200,PHL,LFNCR01,PH-00-2,MAKATI,Asia/Manila,14.55669,121.00765
LFL/TMS/PHL.GSK1200043657,GSK1200043657,SANFORD MARKETING CORP  VITO CRUZ,MAKATI,NCR,PH-00,1200,PHL,LFNCR01,PH-00-2,MAKATI,Asia/Manila,14.5702,120.99199
LFL/TMS/PHL.GSK1200043666,GSK1200043666,Supervalue Inc Makati,MAKATI,NCR,PH-00,1200,PHL,LFNCR01,PH-00-2,MAKATI,Asia/Manila,14.54996,121.0271
LFL/TMS/PHL.GSK1200043654,GSK1200043654,Sanford Mktg Corp Pasong Tamo,MAKATI,NCR,PH-00,1200,PHL,LFNCR01,PH-00-2,MAKATI,Asia/Manila,14.54156,121.01768
LFL/TMS/PHL.GSK1200043713,GSK1200043713,Puregold Price Club Inc Makati,MAKATI,NCR,PH-00,1200,PHL,LFNCR01,PH-00-2,MAKATI,Asia/Manila,14.57444,121.01193
LFL/TMS/PHL.GSK1200043746,GSK1200043746,LANDMARK MAKATI SUPERMARKET,MAKATI,NCR,PH-00,1200,PHL,LFNCR01,PH-00-2,MAKATI,Asia/Manila,14.55205,121.02404
LFL/TMS/PHL.GSK1200043747,GSK1200043747,LANDMARK MAKATI DEPARTMENT STORE,MAKATI,NCR,PH-00,1200,PHL,LFNCR01,PH-00-2,MAKATI,Asia/Manila,14.55205,121.02404
LFL/TMS/PHL.GSK1200043828,GSK1200043828,Rustans SupercntrShopwise Vito Cruz,MAKATI,NCR,PH-00,1200,PHL,LFNCR01,PH-00-2,MAKATI,Asia/Manila,14.56734,121.01366
LFL/TMS/PHL.GSK1200043839,GSK1200043839,Rustans SupercntrRockwell,MAKATI,NCR,PH-00,1200,PHL,LFNCR01,PH-00-2,MAKATI,Asia/Manila,14.56568,121.03646
LFL/TMS/PHL.GSK1200043838,GSK1200043838,Rustans SupercntrMakati,MAKATI,NCR,PH-00,1200,PHL,LFNCR01,PH-00-2,MAKATI,Asia/Manila,14.55147,121.02623
LFL/TMS/PHL.GSK1200043840,GSK1200043840,Rustans SupercntrSan Antonio,MAKATI,NCR,PH-00,1200,PHL,LFNCR01,PH-00-2,MAKATI,Asia/Manila,14.54688,121.03464
LFL/TMS/PHL.GSK1200043841,GSK1200043841,Rustans SupercntrMagallanes,MAKATI,NCR,PH-00,1200,PHL,LFNCR01,PH-00-2,MAKATI,Asia/Manila,14.53601,121.01786
LFL/TMS/PHL.GSK1200043860,GSK1200043860,PUREGOLD PRICE CLUB NORTH COMMONW,QUEZON CITY NORTH,NCR,PH-00,1100,PHL,LFNCR01,PH-00-6,QUEZON CITY NORTH,Asia/Manila,14.67492,121.08209
LFL/TMS/PHL.GSK1200043862,GSK1200043862,Waltermart Smkt Inc North Edsa,QUEZON CITY,NCR,PH-00,1100,PHL,LFNCR01,PH-00-6,QUEZON CITY,Asia/Manila,14.65703,121.02369
LFL/TMS/PHL.GSK1200043866,GSK1200043866,WALTERMART SMKT INC  E RODRIGU,QUEZON CITY,NCR,PH-00,1100,PHL,LFNCR01,PH-00-6,QUEZON CITY,Asia/Manila,14.54899,121.08552
LFL/TMS/PHL.GSK1200043873,GSK1200043873,Rustans SupercntrTomas Morato,QUEZON CITY,NCR,PH-00,1100,PHL,LFNCR01,PH-00-6,QUEZON CITY,Asia/Manila,14.63204,121.03462
LFL/TMS/PHL.GSK1200043887,GSK1200043887,SUPERVALUE INC NOVALICHES 2,QUEZON CITY NORTH,NCR,PH-00,1100,PHL,LFNCR01,PH-00-6,QUEZON CITY NORTH,Asia/Manila,14.70794,121.03787
LFL/TMS/PHL.GSK1200043888,GSK1200043888,Super Shopping Market Cubao,QUEZON CITY,NCR,PH-00,1100,PHL,LFNCR01,PH-00-6,QUEZON CITY,Asia/Manila,14.61933,121.05505
LFL/TMS/PHL.GSK1200043901,GSK1200043901,Sanford Marketing Corp Berkeley,QUEZON CITY,NCR,PH-00,1100,PHL,LFNCR01,PH-00-6,QUEZON CITY,Asia/Manila,14.64095,121.07439
LFL/TMS/PHL.GSK1200043905,GSK1200043905,Puregold Price Club Inc Baesa,QUEZON CITY,NCR,PH-00,1100,PHL,LFNCR01,PH-00-6,QUEZON CITY,Asia/Manila,14.68042,121.01613
LFL/TMS/PHL.GSK1200043913,GSK1200043913,SANFORD MKTG CORP JACKMAN MUNOZ,QUEZON CITY,NCR,PH-00,1100,PHL,LFNCR01,PH-00-6,QUEZON CITY,Asia/Manila,14.65791,121.02089
LFL/TMS/PHL.GSK1200043916,GSK1200043916,Puregold Price Club Mother Ignacia,QUEZON CITY,NCR,PH-00,1100,PHL,LFNCR01,PH-00-6,QUEZON CITY,Asia/Manila,14.63798,121.03169
LFL/TMS/PHL.GSK1200043942,GSK1200043942,Sanford Mktg Corp Araneta Center,QUEZON CITY,NCR,PH-00,1100,PHL,LFNCR01,PH-00-6,QUEZON CITY,Asia/Manila,14.61828,121.05599
LFL/TMS/PHL.GSK1200043949,GSK1200043949,Puregold Price Club Balara,QUEZON CITY,NCR,PH-00,1100,PHL,LFNCR01,PH-00-6,QUEZON CITY,Asia/Manila,14.67468,121.08188
LFL/TMS/PHL.GSK1200043963,GSK1200043963,Sanford Mktg Corp Kanlaon St Q C,QUEZON CITY,NCR,PH-00,1100,PHL,LFNCR01,PH-00-6,QUEZON CITY,Asia/Manila,14.62298,121.00009
LFL/TMS/PHL.GSK1200043977,GSK1200043977,SANFORD MKTG CORP SMC BLUMENTRIT,QUEZON CITY,NCR,PH-00,1100,PHL,LFNCR01,PH-00-6,QUEZON CITY,Asia/Manila,14.62078,120.99662
LFL/TMS/PHL.GSK1200043996,GSK1200043996,Sanford Mktg Corp SMC Laong Laan2,MANILA,NCR,PH-00,1000,PHL,LFNCR01,PH-00-4,MANILA,Asia/Manila,14.61103,120.9967
LFL/TMS/PHL.GSK1200043997,GSK1200043997,Puregold Edsa Balintawak,QUEZON CITY,NCR,PH-00,1100,PHL,LFNCR01,PH-00-6,QUEZON CITY,Asia/Manila,14.65707,121.00493
LFL/TMS/PHL.GSK1200044005,GSK1200044005,Puregold Price Club Delta West Ave,QUEZON CITY,NCR,PH-00,1100,PHL,LFNCR01,PH-00-6,QUEZON CITY,Asia/Manila,14.63736,121.02564
LFL/TMS/PHL.GSK1200044006,GSK1200044006,Puregold Price Club Don Antonio,QUEZON CITY,NCR,PH-00,1100,PHL,LFNCR01,PH-00-6,QUEZON CITY,Asia/Manila,14.68264,121.07898
LFL/TMS/PHL.GSK1200043843,GSK1200043843,Rustans SupercntrGreenbelt,MAKATI,NCR,PH-00,1200,PHL,LFNCR01,PH-00-2,MAKATI,Asia/Manila,14.55354,121.01962
LFL/TMS/PHL.GSK1200043865,GSK1200043865,Waltermart Smkt Inc Pasay Road,MAKATI,NCR,PH-00,1200,PHL,LFNCR01,PH-00-2,MAKATI,Asia/Manila,14.55094,121.01322
LFL/TMS/PHL.GSK1200044121,GSK1200044121,Rustans SupercntrInc Paseo,MAKATI,NCR,PH-00,1200,PHL,LFNCR01,PH-00-2,MAKATI,Asia/Manila,14.5573,121.02306
LFL/TMS/PHL.GSK1200044212,GSK1200044212,Super Shopping Market Jazz Rsidnce,MAKATI,NCR,PH-00,1200,PHL,LFNCR01,PH-00-2,MAKATI,Asia/Manila,14.5634,121.02184
LFL/TMS/PHL.GSK1200043967,GSK1200043967,Sanford Marketing Corp SMC A Venue,MAKATI,NCR,PH-00,1200,PHL,LFNCR01,PH-00-2,MAKATI,Asia/Manila,14.56616,121.02936
LFL/TMS/PHL.GSK1200044215,GSK1200044215,Rustans Alphaland,MAKATI,NCR,PH-00,1200,PHL,LFNCR01,PH-00-2,MAKATI,Asia/Manila,14.55943,121.01962
LFL/TMS/PHL.GSK1200044251,GSK1200044251,Rustans Fresh Century Makati,MAKATI,NCR,PH-00,1200,PHL,LFNCR01,PH-00-2,MAKATI,Asia/Manila,14.56541,121.02902
LFL/TMS/PHL.GSK PHIL,GSK PHIL,"|GLAXOSMITHKLINE PHILIPPINES, INC|||",MAKATI,NCR,PH-00,1200,PHL,LFNCR01,PH-00-2,MAKATI,Asia/Manila,14.53935,121.01909
LFL/TMS/PHL.GSK000001,GSK000001,GLAXOSMITHKLINE,MAKATI,NCR,PH-00,1200,PHL,LFNCR01,PH-00-2,MAKATI,Asia/Manila,14.53929,121.01908
LFL/TMS/PHL.GSK0000PLPH28,GSK0000PLPH28,GSK CH Philippines Inc - CEBU STO,MAKATI,NCR,PH-00,1200,PHL,LFNCR01,PH-00-2,MAKATI,Asia/Manila,14.53936,121.01855
LFL/TMS/PHL.GSK0000PLPH29,GSK0000PLPH29,"|GLAXOSMITHKLINE PHILIPPINES, INC|||",MAKATI,NCR,PH-00,1200,PHL,LFNCR01,PH-00-2,MAKATI,Asia/Manila,14.53935,121.01909
LFL/TMS/PHL.GSK1100290532,GSK1100290532,GSK Employee Cooperative,MAKATI,NCR,PH-00,1200,PHL,LFNCR01,PH-00-2,MAKATI,Asia/Manila,14.53929,121.01908
LFL/TMS/PHL.GSK1100291787,GSK1100291787,GSK PH CX Internal Customer,MAKATI,NCR,PH-00,1200,PHL,LFNCR01,PH-00-2,MAKATI,Asia/Manila,14.53935,121.01909
LFL/TMS/PHL.GSK0000PLPH2B,GSK0000PLPH2B,|DUNCAN CH PHILIPPINES INC.|||,MAKATI,NCR,PH-00,1200,PHL,LFNCR01,PH-00-2,MAKATI,Asia/Manila,14.53906,121.01868
LFL/TMS/PHL.GSK1200044172,GSK1200044172,SNACK EXCHANGE SM MART INC MAKATI,MAKATI,NCR,PH-00,1200,PHL,LFNCR01,PH-00-2,MAKATI,Asia/Manila,14.54996,121.0271
LFL/TMS/PHL.GSK-VAS,GSK-VAS,"|GLAXOSMITHKLINE PHILIPPINES, INC|||",MAKATI,NCR,PH-00,1200,PHL,LFNCR01,PH-00-2,MAKATI,Asia/Manila,14.53935,121.01909
LFL/TMS/PHL.GSK1200043885,GSK1200043885,SANFORD MARKETING CORP    MALABON,MALABON,NCR,PH-00,1470,PHL,LFNCR01,PH-00-5,MALABON,Asia/Manila,14.66857,120.96613
LFL/TMS/PHL.GSK1200044230,GSK1200044230,Sanford Mktg Corp Star J Malabon,MALABON,NCR,PH-00,1470,PHL,LFNCR01,PH-00-5,MALABON,Asia/Manila,14.65723,120.95204
LFL/TMS/PHL.GSK1200044275,GSK1200044275,Sanford Mktg Corp Francis Market,MALABON,NCR,PH-00,1470,PHL,LFNCR01,PH-00-5,MALABON,Asia/Manila,14.66859,120.96633
LFL/TMS/PHL.GSK1200044007,GSK1200044007,SANFORD MKTG CORP SMC DEPOT ARA,QUEZON CITY,NCR,PH-00,1100,PHL,LFNCR01,PH-00-6,QUEZON CITY,Asia/Manila,14.63887,121.00756
LFL/TMS/PHL.GSK1200044019,GSK1200044019,SANFORD MKTG CORP SMC NOVA PLAZA,QUEZON CITY NORTH,NCR,PH-00,1100,PHL,LFNCR01,PH-00-6,QUEZON CITY NORTH,Asia/Manila,14.7217,121.04028
LFL/TMS/PHL.GSK1200044054,GSK1200044054,PUREGOLDPRICECLUB QUEZON AVE PARCO,QUEZON CITY,NCR,PH-00,1100,PHL,LFNCR01,PH-00-6,QUEZON CITY,Asia/Manila,14.64175,121.03151
LFL/TMS/PHL.GSK1200044055,GSK1200044055,Puregold Price Club Del Monte Parco,QUEZON CITY,NCR,PH-00,1100,PHL,LFNCR01,PH-00-6,QUEZON CITY,Asia/Manila,14.63741,120.99476
LFL/TMS/PHL.GSK1200044084,GSK1200044084,Puregold Price Club West Ave,QUEZON CITY,NCR,PH-00,1100,PHL,LFNCR01,PH-00-6,QUEZON CITY,Asia/Manila,14.63736,121.02564
LFL/TMS/PHL.GSK1200044098,GSK1200044098,Puregold Price Club Kanlaon,QUEZON CITY,NCR,PH-00,1100,PHL,LFNCR01,PH-00-6,QUEZON CITY,Asia/Manila,14.64061,121.01541
LFL/TMS/PHL.GSK1200044097,GSK1200044097,PUREGOLD PRICE CLUB NOVALICHES,QUEZON CITY,NCR,PH-00,1100,PHL,LFNCR01,PH-00-6,QUEZON CITY,Asia/Manila,14.7206,121.04028
LFL/TMS/PHL.GSK1200044133,GSK1200044133,Puregold Price Club Batasan,QUEZON CITY,NCR,PH-00,1100,PHL,LFNCR01,PH-00-6,QUEZON CITY,Asia/Manila,14.68524,121.10293
LFL/TMS/PHL.GSK1200044138,GSK1200044138,PUREGOLD PRICE CLUB SAUYO Q C,QUEZON CITY,NCR,PH-00,1100,PHL,LFNCR01,PH-00-6,QUEZON CITY,Asia/Manila,14.65707,121.00493
LFL/TMS/PHL.GSK1200044152,GSK1200044152,Sanford Mktg Corp Project 8 Q C,QUEZON CITY,NCR,PH-00,1100,PHL,LFNCR01,PH-00-6,QUEZON CITY,Asia/Manila,14.67226,121.01997
LFL/TMS/PHL.GSK1200044157,GSK1200044157,PUREGOLD PRICE CLUB STA  MESA JR,QUEZON CITY,NCR,PH-00,1100,PHL,LFNCR01,PH-00-6,QUEZON CITY,Asia/Manila,14.60171,121.00322
LFL/TMS/PHL.GSK1200044191,GSK1200044191,Puregold Price Club Visayas,QUEZON CITY,NCR,PH-00,1100,PHL,LFNCR01,PH-00-6,QUEZON CITY,Asia/Manila,14.67543,121.04388
LFL/TMS/PHL.GSK1200044250,GSK1200044250,PUREGOLD FAIRVIEW TERR,QUEZON CITY NORTH,NCR,PH-00,1100,PHL,LFNCR01,PH-00-6,QUEZON CITY NORTH,Asia/Manila,14.73671,121.05924
LFL/TMS/PHL.GSK1200044208,GSK1200044208,PUREGOLD PRICE CLUB OLD ZABARTE,QUEZON CITY NORTH,NCR,PH-00,1100,PHL,LFNCR01,PH-00-6,QUEZON CITY NORTH,Asia/Manila,14.75563,121.04311
LFL/TMS/PHL.GSK1200044269,GSK1200044269,Puregold Price Club Timog Jr,QUEZON CITY,NCR,PH-00,1100,PHL,LFNCR01,PH-00-6,QUEZON CITY,Asia/Manila,14.63439,121.03918
LFL/TMS/PHL.GSK1200044271,GSK1200044271,Puregold Price Club QueAve Parco,QUEZON CITY,NCR,PH-00,1100,PHL,LFNCR01,PH-00-6,QUEZON CITY,Asia/Manila,14.64091,121.03178
LFL/TMS/PHL.GSK1200044280,GSK1200044280,SUPER SHOPPING MARKET INC QCity,QUEZON CITY,NCR,PH-00,1100,PHL,LFNCR01,PH-00-6,QUEZON CITY,Asia/Manila,14.61794,121.00124
LFL/TMS/PHL.GSK1200044289,GSK1200044289,Sanford Mktg Corp- Cyberwest QC,QUEZON CITY,NCR,PH-00,1100,PHL,LFNCR01,PH-00-6,QUEZON CITY,Asia/Manila,14.65537,121.02944
LFL/TMS/PHL.GSK1200044209,GSK1200044209,PUREGOLDPRICECLUB MLASIQUIPANGSINAN,MALASIQUI,PANGASINAN,PH-PAN,2421,PHL,LFREG01,PH-PAN,MALASIQUI,Asia/Manila,15.91962,120.41626
LFL/TMS/PHL.GSK1200043725,GSK1200043725,PUREGOLD PRICE CLUB INC MALOLOS,MALOLOS,BULACAN,PH-BUL,3000,PHL,LFREG03,PH-BUL,MALOLOS,Asia/Manila,14.84128,120.86239
LFL/TMS/PHL.GSK1200043672,GSK1200043672,Supervalue Inc Megamall,MANDALUYONG,NCR,PH-00,1550,PHL,LFNCR01,PH-00-3,MANDALUYONG,Asia/Manila,14.58444,121.05734
LFL/TMS/PHL.GSK1200043619,GSK1200043619,Super Shopping Market Mandaluyong,MANDALUYONG,NCR,PH-00,1550,PHL,LFNCR01,PH-00-3,MANDALUYONG,Asia/Manila,14.5927,121.03005
LFL/TMS/PHL.GSK1200043696,GSK1200043696,Puregold Price Club St Francis,MANDALUYONG,NCR,PH-00,1550,PHL,LFNCR01,PH-00-3,MANDALUYONG,Asia/Manila,14.58512,121.05842
LFL/TMS/PHL.GSK1200043692,GSK1200043692,PUREGOLD PRICE CLUB EDSA STARMALL,MANDALUYONG,NCR,PH-00,1550,PHL,LFNCR01,PH-00-3,MANDALUYONG,Asia/Manila,14.6576,120.99805
LFL/TMS/PHL.GSK1200043737,GSK1200043737,Puregold Price Club Inc Shaw,MANDALUYONG,NCR,PH-00,1550,PHL,LFNCR01,PH-00-3,MANDALUYONG,Asia/Manila,14.58897,121.0421
LFL/TMS/PHL.GSK1200043837,GSK1200043837,Rustans SupercntrShangri La,MANDALUYONG,NCR,PH-00,1550,PHL,LFNCR01,PH-00-3,MANDALUYONG,Asia/Manila,14.58159,121.05425
LFL/TMS/PHL.GSK1200043847,GSK1200043847,Rustans SupercntrBoni,MANDALUYONG,NCR,PH-00,1550,PHL,LFNCR01,PH-00-3,MANDALUYONG,Asia/Manila,14.58103,121.03002
LFL/TMS/PHL.GSK1200043915,GSK1200043915,Supervalue Inc Mega A,MANDALUYONG,NCR,PH-00,1550,PHL,LFNCR01,PH-00-3,MANDALUYONG,Asia/Manila,14.58558,121.05722
LFL/TMS/PHL.GSK1200044234,GSK1200044234,KAREILA SNR MMBRSHIPSHPMNDALUYONG,MANDALUYONG,NCR,PH-00,1550,PHL,LFNCR01,PH-00-3,MANDALUYONG,Asia/Manila,14.58746,121.04542
LFL/TMS/PHL.GSK1200046875,GSK1200046875,Sanford Ligth Residences,MANDALUYONG,NCR,PH-00,1550,PHL,LFNCR01,PH-00-3,MANDALUYONG,Asia/Manila,14.57363,121.04848
LFL/TMS/PHL.GSK1200059570,GSK1200059570,Supervalue Shaw,MANDALUYONG,NCR,PH-00,1550,PHL,LFNCR01,PH-00-3,MANDALUYONG,Asia/Manila,14.58684,121.04495
LFL/TMS/PHL.GSK1100290525,GSK1100290525,SNACK EXCHANGE MJOR SHOPINGMGNTMAIN,MANDALUYONG,NCR,PH-00,1550,PHL,LFNCR01,PH-00-3,MANDALUYONG,Asia/Manila,14.58558,121.05722
LFL/TMS/PHL.GSK1200044159,GSK1200044159,SNACK EXCHANGE MJORSHPPINGMGNTCORP,MANDALUYONG,NCR,PH-00,1550,PHL,LFNCR01,PH-00-3,MANDALUYONG,Asia/Manila,14.58558,121.05722
LFL/TMS/PHL.GSK1200044148,GSK1200044148,PuregoldPriceClub Mngatrem Pngsinan,MANGATAREM,PANGASINAN,PH-PAN,2413,PHL,LFREG01,PH-PAN,MANGATAREM,Asia/Manila,15.79139,120.29266
LFL/TMS/PHL.GSK1200043622,GSK1200043622,Super Shopping Market Adriatico,MANILA,NCR,PH-00,1000,PHL,LFNCR01,PH-00-4,MANILA,Asia/Manila,14.56365,120.98991
LFL/TMS/PHL.GSK1200061914,GSK1200061914,ROSE PHARMACY INC SAN JUAN,MANILA,NCR,PH-00,1000,PHL,LFNCR01,PH-00-4,MANILA,Asia/Manila,14.60409,121.0252
LFL/TMS/PHL.GSK1200043623,GSK1200043623,SUPER SHOP MARKET  NORTH HARBOUR,MANILA,NCR,PH-00,1000,PHL,LFNCR01,PH-00-4,MANILA,Asia/Manila,14.63257,120.95749
LFL/TMS/PHL.GSK1200044859,GSK1200044859,RUSTANS SUPERCENTER INC W LAGRO,QUEZON CITY NORTH,NCR,PH-00,1100,PHL,LFNCR01,PH-00-6,QUEZON CITY NORTH,Asia/Manila,14.73507,121.06083
LFL/TMS/PHL.GSK1200049600,GSK1200049600,Ayagold,QUEZON CITY,NCR,PH-00,1100,PHL,LFNCR01,PH-00-6,QUEZON CITY,Asia/Manila,14.64937,121.0751
LFL/TMS/PHL.GSK1200059489,GSK1200059489,Super Shopping Market Congressional,QUEZON CITY,NCR,PH-00,1100,PHL,LFNCR01,PH-00-6,QUEZON CITY,Asia/Manila,14.67138,121.03843
LFL/TMS/PHL.GSK1100290524,GSK1100290524,SNACK EXCHANGE MARKETSTRATEGICMAIN,QUEZON CITY NORTH,NCR,PH-00,1100,PHL,LFNCR01,PH-00-6,QUEZON CITY NORTH,Asia/Manila,14.73398,121.05974
LFL/TMS/PHL.GSK1200060343,GSK1200060343,Puregold Kalayaan,QUEZON CITY,NCR,PH-00,1100,PHL,LFNCR01,PH-00-6,QUEZON CITY,Asia/Manila,14.64568,121.05342
LFL/TMS/PHL.GSK1100290526,GSK1100290526,SNACK EXCHANGE MERCANTILESTORESMAIN,QUEZON CITY,NCR,PH-00,1100,PHL,LFNCR01,PH-00-6,QUEZON CITY,Asia/Manila,14.6046,121.01897
LFL/TMS/PHL.GSK1200044160,GSK1200044160,SNACK EXCHANGE MRKETSTRATGICFRM INC,QUEZON CITY,NCR,PH-00,1100,PHL,LFNCR01,PH-00-6,QUEZON CITY,Asia/Manila,14.73465,121.06023
LFL/TMS/PHL.GSK1200044158,GSK1200044158,SNACK EXCHANGE SM MART INC CUBAO,QUEZON CITY,NCR,PH-00,1100,PHL,LFNCR01,PH-00-6,QUEZON CITY,Asia/Manila,14.61907,121.05561
LFL/TMS/PHL.GSK1200044167,GSK1200044167,SNACK EXCHANGE MRCNTILESTORESTAMESA,QUEZON CITY,NCR,PH-00,1100,PHL,LFNCR01,PH-00-6,QUEZON CITY,Asia/Manila,14.6046,121.01897
LFL/TMS/PHL.GSK1200044169,GSK1200044169,SNACK EXCHANGE METROMAINSTRNVLICHES,QUEZON CITY NORTH,NCR,PH-00,1100,PHL,LFNCR01,PH-00-6,QUEZON CITY NORTH,Asia/Manila,14.70801,121.03832
LFL/TMS/PHL.GSK1200044213,GSK1200044213,SM MART INC NORTH EDSA,QUEZON CITY,NCR,PH-00,1100,PHL,LFNCR01,PH-00-6,QUEZON CITY,Asia/Manila,14.65696,121.03956
LFL/TMS/PHL.GSK1200044217,GSK1200044217,WELLCOME CONGRESSIONAL,QUEZON CITY,NCR,PH-00,1100,PHL,LFNCR01,PH-00-6,QUEZON CITY,Asia/Manila,14.66518,121.02756
LFL/TMS/PHL.GSK1200043613,GSK1200043613,Super Shopping Market Taytay,TAYTAY,RIZAL,PH-RIZ,1920,PHL,LFRIZ01,PH-RIZ-2,TAYTAY,Asia/Manila,14.56459,121.1391
LFL/TMS/PHL.GSK1200059772,GSK1200059772,SMC MPLACE SOUTH TRIANGLE RESIDENCES,QUEZON CITY,NCR,PH-00,1100,PHL,LFNCR01,PH-00-6,QUEZON CITY,Asia/Manila,14.63934,121.0348
LFL/TMS/PHL.GSK1200043639,GSK1200043639,Sanford Marketing Corp Angono,ANGONO,RIZAL,PH-RIZ,1930,PHL,LFRIZ01,PH-RIZ-2,ANGONO,Asia/Manila,14.53131,121.15405
LFL/TMS/PHL.GSK1200043640,GSK1200043640,Sanford Marketing Corp Morong,MORONG,RIZAL,PH-RIZ,1960,PHL,LFRIZ01,PH-RIZ-2,MORONG,Asia/Manila,14.51493,121.23953
LFL/TMS/PHL.GSK1200043643,GSK1200043643,Sanford Marketing Corp Tanay,TANAY,RIZAL,PH-RIZ,1980,PHL,LFRIZ01,PH-RIZ-2,TANAY,Asia/Manila,14.49512,121.29165
LFL/TMS/PHL.GSK1200043720,GSK1200043720,Puregold Price Club Inc Taytay,TAYTAY,RIZAL,PH-RIZ,1920,PHL,LFRIZ01,PH-RIZ-2,TAYTAY,Asia/Manila,14.57047,121.13165
LFL/TMS/PHL.GSK1200043730,GSK1200043730,PUREGOLD PRICE CLUB SAN MATEO,SAN MATEO,RIZAL,PH-RIZ,1850,PHL,LFRIZ01,PH-RIZ-1,SAN MATEO,Asia/Manila,14.67698,121.11166
LFL/TMS/PHL.GSK1200043632,GSK1200043632,Sanford Mktg Corp Taft Masagana,MANILA,NCR,PH-00,1000,PHL,LFNCR01,PH-00-4,MANILA,Asia/Manila,14.58378,120.98436
LFL/TMS/PHL.GSK1200043627,GSK1200043627,SANFORD MARKETING CORP LAONG LAAN,MANILA,NCR,PH-00,1000,PHL,LFNCR01,PH-00-4,MANILA,Asia/Manila,14.62071,120.99578
LFL/TMS/PHL.GSK1200043642,GSK1200043642,Sanford Marketing Corp Nagtahan,MANILA,NCR,PH-00,1000,PHL,LFNCR01,PH-00-4,MANILA,Asia/Manila,14.60042,121.00032
LFL/TMS/PHL.GSK1200043693,GSK1200043693,Puregold Price Club Bocobo,MANILA,NCR,PH-00,1000,PHL,LFNCR01,PH-00-4,MANILA,Asia/Manila,14.57986,120.98138
LFL/TMS/PHL.GSK1200043671,GSK1200043671,Supervalue Inc Manila,MANILA,NCR,PH-00,1000,PHL,LFNCR01,PH-00-4,MANILA,Asia/Manila,14.58975,120.98341
LFL/TMS/PHL.GSK1200043674,GSK1200043674,Supervalue Inc San Lazaro,MANILA,NCR,PH-00,1000,PHL,LFNCR01,PH-00-4,MANILA,Asia/Manila,14.61811,120.9861
LFL/TMS/PHL.GSK1200043695,GSK1200043695,Puregold Price Club Blumentritt,MANILA,NCR,PH-00,1000,PHL,LFNCR01,PH-00-4,MANILA,Asia/Manila,14.6257,120.98855
LFL/TMS/PHL.GSK1200043711,GSK1200043711,PUREGOLD PRICE CLUB KALENTONG,MANILA,NCR,PH-00,1000,PHL,LFNCR01,PH-00-4,MANILA,Asia/Manila,14.58844,121.0213
LFL/TMS/PHL.GSK1200043714,GSK1200043714,Puregold Price Club Malate,MANILA,NCR,PH-00,1000,PHL,LFNCR01,PH-00-4,MANILA,Asia/Manila,14.56992,120.98863
LFL/TMS/PHL.GSK1200043721,GSK1200043721,Puregold Price Club Inc Tayuman,MANILA,NCR,PH-00,1000,PHL,LFNCR01,PH-00-4,MANILA,Asia/Manila,14.61822,120.97133
LFL/TMS/PHL.GSK1200043723,GSK1200043723,Puregold Price Club Inc Sta Ana,MANILA,NCR,PH-00,1000,PHL,LFNCR01,PH-00-4,MANILA,Asia/Manila,14.58826,121.0214
LFL/TMS/PHL.GSK1200043728,GSK1200043728,Puregold Price Club Inc Sta Mesa,MANILA,NCR,PH-00,1000,PHL,LFNCR01,PH-00-4,MANILA,Asia/Manila,14.60184,121.01069
LFL/TMS/PHL.GSK1200043732,GSK1200043732,Puregold Price Club Inc Libertad,PASAY,NCR,PH-00,1300,PHL,LFNCR01,PH-00-2,PASAY,Asia/Manila,14.54754,120.99887
LFL/TMS/PHL.GSK1200043734,GSK1200043734,Puregold Price Club Inc Paco,MANILA,NCR,PH-00,1000,PHL,LFNCR01,PH-00-4,MANILA,Asia/Manila,14.57698,120.99352
LFL/TMS/PHL.GSK1200043739,GSK1200043739,Puregold Price Club Paranaque,PARANAQUE,NCR,PH-00,1700,PHL,LFNCR01,PH-00-1,PARANAQUE,Asia/Manila,14.50098,120.99718
LFL/TMS/PHL.GSK1200043858,GSK1200043858,Puregold Divisoria,MANILA,NCR,PH-00,1000,PHL,LFNCR01,PH-00-4,MANILA,Asia/Manila,14.60659,120.97097
LFL/TMS/PHL.GSK1200043831,GSK1200043831,Rustans Supercntr Shopwise Harrison,MANILA,NCR,PH-00,1000,PHL,LFNCR01,PH-00-4,MANILA,Asia/Manila,14.5624,120.98913
LFL/TMS/PHL.GSK1200043944,GSK1200043944,Sanford Mktg Corp Sta Ana Manila,MANILA,NCR,PH-00,1000,PHL,LFNCR01,PH-00-4,MANILA,Asia/Manila,14.58156,121.01155
LFL/TMS/PHL.GSK1200043966,GSK1200043966,Sanford Mktg Corp Pedro Gil Manila,MANILA,NCR,PH-00,1000,PHL,LFNCR01,PH-00-4,MANILA,Asia/Manila,14.57744,120.99187
LFL/TMS/PHL.GSK1200043970,GSK1200043970,PUREGOLD PRICE CLUB MONTALBAN,"RODRIGUEZ, MONTALBAN",RIZAL,PH-RIZ,1860,PHL,LFRIZ01,PH-RIZ-1,"RODRIGUEZ, MONTALBAN",Asia/Manila,14.72945,121.14193
LFL/TMS/PHL.GSK1200044049,GSK1200044049,Super Shopping Market Inc Cainta,CAINTA,RIZAL,PH-RIZ,1900,PHL,LFRIZ01,PH-RIZ-2,CAINTA,Asia/Manila,14.59474,121.10964
LFL/TMS/PHL.GSK1200044057,GSK1200044057,PUREGOLD PRICE CLUB ANGONO,ANGONO,RIZAL,PH-RIZ,1930,PHL,LFRIZ01,PH-RIZ-2,ANGONO,Asia/Manila,14.53022,121.15412
LFL/TMS/PHL.GSK1200044069,GSK1200044069,RustansSupercntrInc GreenlandCainta,CAINTA,RIZAL,PH-RIZ,1900,PHL,LFRIZ01,PH-RIZ-2,CAINTA,Asia/Manila,14.58401,121.12415
LFL/TMS/PHL.GSK1200044095,GSK1200044095,Puregold Price Club Angono Rizal,ANGONO,RIZAL,PH-RIZ,1930,PHL,LFRIZ01,PH-RIZ-2,ANGONO,Asia/Manila,14.52274,121.15341
LFL/TMS/PHL.GSK1200044100,GSK1200044100,Puregold Price Club San Mateo,SAN MATEO,RIZAL,PH-RIZ,1850,PHL,LFRIZ01,PH-RIZ-1,SAN MATEO,Asia/Manila,14.67698,121.11166
LFL/TMS/PHL.GSK1200044107,GSK1200044107,PuregoldPriceClub Sto Domingo Rizal,CAINTA,RIZAL,PH-RIZ,1900,PHL,LFRIZ01,PH-RIZ-2,CAINTA,Asia/Manila,14.62021,121.10142
LFL/TMS/PHL.GSK1200044123,GSK1200044123,Sanford Marketing Corp SMCo ARDI,CAINTA,RIZAL,PH-RIZ,1900,PHL,LFRIZ01,PH-RIZ-2,CAINTA,Asia/Manila,14.5768,121.11713
LFL/TMS/PHL.GSK1200044222,GSK1200044222,Company E Corp San Mateo Rizal,SAN MATEO,RIZAL,PH-RIZ,1850,PHL,LFRIZ01,PH-RIZ-1,SAN MATEO,Asia/Manila,14.68272,121.11565
LFL/TMS/PHL.GSK1200044220,GSK1200044220,Company E Corp Grocery E Smkt,ANGONO,RIZAL,PH-RIZ,1930,PHL,LFRIZ01,PH-RIZ-2,ANGONO,Asia/Manila,14.52336,121.15418
LFL/TMS/PHL.GSK1200044136,GSK1200044136,PUREGOLDPRICECLUB MILIE LUCE ATIPLO,ANTIPOLO,RIZAL,PH-RIZ,1870,PHL,LFRIZ01,PH-RIZ-2,ANTIPOLO,Asia/Manila,14.5707,121.1781
LFL/TMS/PHL.GSK1200044236,GSK1200044236,Puregold Price Club Pob Tanay,TANAY,RIZAL,PH-RIZ,1980,PHL,LFRIZ01,PH-RIZ-2,TANAY,Asia/Manila,14.49524,121.29048
LFL/TMS/PHL.GSK1200044241,GSK1200044241,Puregold Price Club Cainta Ext,CAINTA,RIZAL,PH-RIZ,1900,PHL,LFRIZ01,PH-RIZ-2,CAINTA,Asia/Manila,14.58448,121.12408
